4590f6∆c&FñÊv6∆Êc&FÊ6ññ∆VcÊ∆∆V&v∆∆∆Svf÷$GPGGA,045903.003,2409.0731,N,12040.1399,E,1,05,1.5,126.3,M,,,,0000*0F
$GPGSA,A,3,17,04,28,13,20,,,,,,,,2.6,1.5,2.0*38
,,A*77
$GPGGA,045904.003,2409.0731,N,12040.1399,E,1,05,1.5,126.3,M,,,,0000*08
$GPGSA,A,3,17,04,28,13,20,,,,,,,,2.6,1.5,2.0*38
,28,177,32*7E
$GPGSV,2,2,08,23,22,074,,10,11,217,,20,10,039,32,12,05,321,20*7A
$GPRMC,045904.003,A,2409.0731,N,12040.1399,E,0.00,,050207,,,A*70
$GPGGA,045905.003,2409.0731,N,12040.1399,E,1,05,1.5,126.3,M,,,,0000*09
$GPGSA,A,3,17,04,28,13,20,,,,,,,,2.6,1.5,2.0*38
,,A*71
$GPGGA,045906.003,2409.0774,N,12040.1434,E,1,05,1.5,130.4,M,,,,0000*0B
$GPGSA,A,3,17,04,28,13,20,,,,,,,,2.6,1.5,2.0*38
,,A*73
$GPGGA,045907.003,2409.0774,N,12040.1434,E,1,05,1.5,130.4,M,,,,0000*0A
$GPGSA,A,3,17,04,28,13,20,,,,,,,,2.6,1.5,2.0*38
,A*72
$GPGGA,045908.003,2409.0774,N,12040.1434,E,1,05,1.5,130.4,M,,,,0000*05
$GPGSA,A,3,17,04,28,13,20,,,,,,,,2.6,1.5,2.0*38
,,A*7D
$GPGGA,045909.003,2409.0813,N,12040.1456,E,1,05,1.5,138.6,M,,,,0000*04
$GPGSA,A,3,17,04,28,13,20,,,,,,,,2.6,1.5,2.0*38
7,35*75
$GPGSV,2,2,08,23,22,074,,10,11,217,,20,10,039,30,12,05,321,20*78
$GPRMC,045909.003,A,2409.0813,N,12040.1456,E,0.00,,050207,,,A*76
$GPGGA,045910.003,2409.0813,N,12040.1456,E,1,05,1.5,138.6,M,,,,0000*0C
$GPGSA,A,3,17,04,28,13,20,,,,,,,,2.6,1.5,2.0*38
*7E
$GPGGA,045911.002,2409.0813,N,12040.1456,E,1,05,1.5,138.6,M,,,,0000*0C
$GPGSA,A,3,17,04,28,13,20,,,,,,,,2.6,1.5,2.0*38
,A*7E
$GPGGA,045912.002,2409.0813,N,12040.1456,E,1,05,1.5,138.6,M,,,,0000*0F
$GPGSA,A,3,17,04,28,13,20,,,,,,,,2.6,1.5,2.0*38
,A*7D
$GPGGA,045913.002,2409.0813,N,12040.1456,E,1,05,1.5,138.6,M,,,,0000*0E
$GPGSA,A,3,17,04,28,13,20,,,,,,,,2.6,1.5,2.0*38
$GPRMC,045913.002,A,2409.0813,N,12040.1456,E,0.00,,050207,,,A*7C
$GPGGA,045914.002,2409.0813,N,12040.1456,E,1,05,1.5,138.6,M,,,,0000*09
$GPGSA,A,3,17,04,28,13,20,,,,,,,,2.6,1.5,2.0*38
34*7F
$GPGSV,2,2,08,23,22,074,,10,11,217,,20,10,039,31,12,05,320,20*78
$GPRMC,045914.002,A,2409.0813,N,12040.1456,E,0.00,,050207,,,A*7B
$GPGGA,045915.002,2409.0813,N,12040.1456,E,1,05,1.5,138.6,M,,,,0000*08
$GPGSA,A,3,17,04,28,13,20,,,,,,,,2.6,1.5,2.0*38
A*7A
$GPGGA,045916.002,2409.0813,N,12040.1456,E,1,05,1.5,138.6,M,,,,0000*0B
$GPGSA,A,3,17,04,28,13,20,,,,,,,,2.6,1.5,2.0*38
9
$GPGGA,045917.002,2409.0813,N,12040.1456,E,1,05,1.5,138.6,M,,,,0000*0A
$GPGSA,A,3,17,04,28,13,20,,,,,,,,2.6,1.5,2.0*38
,,,A*78
$GPGGA,045918.002,2409.0813,N,12040.1456,E,1,05,1.5,138.6,M,,,,0000*05
$GPGSA,A,3,17,04,28,13,20,,,,,,,,2.6,1.5,2.0*38
50207,,,A*77
$GPGGA,045919.002,2409.0813,N,12040.1456,E,1,05,1.5,138.6,M,,,,0000*04
$GPGSA,A,3,17,04,28,13,20,,,,,,,,2.6,1.5,2.0*38
8,177,30*7E
$GPGSV,2,2,08,23,22,074,,10,11,217,,20,10,039,31,12,06,320,30*7A
$GPRMC,045919.002,A,2409.0813,N,12040.1456,E,0.00,,050207,,,A*76
$GPGGA,045920.002,2409.0813,N,12040.1456,E,1,05,1.5,138.6,M,,,,0000*0E
$GPGSA,A,3,17,04,28,13,20,,,,,,,,2.5,1.5,2.0*3B
A*7C
$GPGGA,045921.002,2409.0813,N,12040.1456,E,1,05,1.5,138.6,M,,,,0000*0F
$GPGSA,A,3,17,04,28,13,20,,,,,,,,2.5,1.5,2.0*3B
,,A*7D
$GPGGA,045922.002,2409.0813,N,12040.1456,E,1,05,1.5,138.6,M,,,,0000*0C
$GPGSA,A,3,17,04,28,13,20,,,,,,,,2.5,1.5,2.0*3B
0207,,,A*7E
$GPGGA,045923.002,2409.0813,N,12040.1456,E,1,05,1.5,138.6,M,,,,0000*0D
$GPGSA,A,3,17,04,28,13,20,,,,,,,,2.5,1.5,2.0*3B
7,,,A*7F
$GPGGA,045924.002,2409.0813,N,12040.1456,E,1,05,1.5,138.6,M,,,,0000*0A
$GPGSA,A,3,17,04,28,13,20,,,,,,,,2.5,1.5,2.0*3B
77,23*7F
$GPGSV,2,2,08,23,22,074,,10,11,217,,20,10,039,30,12,06,320,32*79
$GPRMC,045924.002,A,2409.0813,N,12040.1456,E,0.00,,050207,,,A*78
$GPGGA,045925.002,2409.0813,N,12040.1456,E,1,04,2.2,138.6,M,,,,0000*0E
$GPGSA,A,3,17,28,13,20,,,,,,,,,3.0,2.2,2.0*3F
9
$GPGGA,045926.002,2409.0813,N,12040.1456,E,1,05,1.5,138.6,M,,,,0000*08
$GPGSA,A,3,17,04,28,13,20,,,,,,,,2.5,1.5,2.0*3B
,A*7A
$GPGGA,045927.001,2409.0813,N,12040.1456,E,1,05,1.5,138.6,M,,,,0000*0A
$GPGSA,A,3,17,04,28,13,20,,,,,,,,2.5,1.5,2.0*3B
7,,,A*78
$GPGGA,045928.001,2409.0813,N,12040.1456,E,1,05,1.5,138.6,M,,,,0000*05
$GPGSA,A,3,17,04,28,13,20,,,,,,,,2.5,1.5,2.0*3B
7,,,A*77
$GPGGA,045929.001,2409.0813,N,12040.1456,E,1,05,1.5,138.6,M,,,,0000*04
$GPGSA,A,3,17,04,28,13,20,,,,,,,,2.5,1.5,2.0*3B
8,177,21*7A
$GPGSV,2,2,08,23,22,074,,10,11,217,,20,10,039,31,12,06,320,31*7B
$GPRMC,045929.001,A,2409.0813,N,12040.1456,E,0.00,,050207,,,A*76
$GPGGA,045930.001,2409.0813,N,12040.1456,E,1,05,1.5,138.6,M,,,,0000*0C
$GPGSA,A,3,17,04,28,13,20,,,,,,,,2.5,1.5,2.0*3B
,,,A*7E
$GPGGA,045931.001,2409.0813,N,12040.1456,E,1,05,1.5,138.6,M,,,,0000*0D
$GPGSA,A,3,17,04,28,13,20,,,,,,,,2.5,1.5,2.0*3B
07,,,A*7F
$GPGGA,045932.001,2409.0813,N,12040.1456,E,1,05,1.5,138.6,M,,,,0000*0E
$GPGSA,A,3,17,04,28,13,20,,,,,,,,2.5,1.5,2.0*3B
50207,,,A*7C
$GPGGA,045933.001,2409.0813,N,12040.1456,E,1,05,1.5,138.6,M,,,,0000*0F
$GPGSA,A,3,17,04,28,13,20,,,,,,,,2.5,1.5,2.0*3B
050207,,,A*7D
$GPGGA,045934.001,2409.0813,N,12040.1456,E,1,04,2.1,138.6,M,,,,0000*0E
$GPGSA,A,3,17,04,28,20,,,,,,,,,3.0,2.1,2.1*3B
28,177,30*70
$GPGSV,2,2,08,23,22,074,19,10,11,217,,20,10,039,31,12,06,320,30*72
$GPRMC,045934.001,A,2409.0813,N,12040.1456,E,0.00,,050207,,,A*7A
$GPGGA,045935.001,2409.0813,N,12040.1456,E,1,05,1.5,138.6,M,,,,0000*09
$GPGSA,A,3,17,04,28,13,20,,,,,,,,2.5,1.5,2.0*3B
207,,,A*7B
$GPGGA,045936.001,2409.0813,N,12040.1456,E,1,05,1.5,138.6,M,,,,0000*0A
$GPGSA,A,3,17,04,28,13,20,,,,,,,,2.5,1.5,2.0*3B
207,,,A*78
$GPGGA,045937.001,2409.0813,N,12040.1456,E,1,05,1.5,138.6,M,,,,0000*0B
$GPGSA,A,3,17,04,28,13,20,,,,,,,,2.5,1.5,2.0*3B
,050207,,,A*79
$GPGGA,045938.001,2409.0813,N,12040.1456,E,1,04,1.8,138.6,M,,,,0000*08
$GPGSA,A,3,04,28,13,20,,,,,,,,,3.9,1.8,3.5*39
7,,,A*76
$GPGGA,045939.001,2409.0813,N,12040.1456,E,1,05,1.5,138.6,M,,,,0000*05
$GPGSA,A,3,17,04,28,13,20,,,,,,,,2.5,1.5,2.0*3B
28,28,177,33*73
$GPGSV,2,2,08,23,22,074,21,10,11,217,,20,10,039,30,12,06,320,30*78
$GPRMC,045939.001,A,2409.0813,N,12040.1456,E,0.00,,050207,,,A*77
$GPGGA,045940.001,2409.0813,N,12040.1456,E,1,05,1.5,138.6,M,,,,0000*0B
$GPGSA,A,3,17,04,28,13,20,,,,,,,,2.5,1.5,2.0*3B
207,,,A*79
$GPGGA,045941.001,2409.0813,N,12040.1456,E,1,04,2.1,138.6,M,,,,0000*0C
$GPGSA,A,3,17,04,28,13,,,,,,,,,4.9,2.1,4.4*36
78
$GPGGA,045942.001,2409.0813,N,12040.1456,E,1,05,1.5,138.6,M,,,,0000*09
$GPGSA,A,3,17,04,28,13,20,,,,,,,,2.5,1.5,2.0*3B
6,E,0.00,,050207,,,A*7B
$GPGGA,045943.001,2409.0813,N,12040.1456,E,1,05,1.5,138.6,M,,,,0000*08
$GPGSA,A,3,17,04,28,13,20,,,,,,,,2.5,1.5,2.0*3B
,,050207,,,A*7A
$GPGGA,045944.000,2409.0813,N,12040.1456,E,1,05,1.5,138.6,M,,,,0000*0E
$GPGSA,A,3,17,04,28,13,20,,,,,,,,2.5,1.5,2.0*3B
9,30,28,28,177,31*76
$GPGSV,3,2,09,02,25,285,,23,22,074,21,10,11,217,,20,10,039,29*7D
$GPGSV,3,3,09,12,06,320,30*47
$GPRMC,045944.000,A,2409.0813,N,12040.1456,E,0.00,,050207,,,A*7C
$GPGGA,045945.000,2409.0813,N,12040.1456,E,1,05,1.5,138.6,M,,,,0000*0F
$GPGSA,A,3,17,04,28,13,20,,,,,,,,2.5,1.5,2.0*3B
,050207,,,A*7D
$GPGGA,045946.000,2409.0813,N,12040.1456,E,1,05,1.5,138.6,M,,,,0000*0C
$GPGSA,A,3,17,04,28,13,20,,,,,,,,2.5,1.5,2.0*3B
,,050207,,,A*7E
$GPGGA,045947.000,2409.0813,N,12040.1456,E,1,05,1.5,138.6,M,,,,0000*0D
$GPGSA,A,3,17,04,28,13,20,,,,,,,,2.5,1.5,2.0*3B
.00,,050207,,,A*7F
$GPGGA,045948.000,2409.0813,N,12040.1456,E,1,05,1.5,138.6,M,,,,0000*02
$GPGSA,A,3,17,04,28,13,20,,,,,,,,2.5,1.5,2.0*3B
0,,050207,,,A*70
$GPGGA,045949.000,2409.0813,N,12040.1456,E,1,04,3.4,138.6,M,,,,0000*01
$GPGSA,A,3,17,04,13,20,,,,,,,,,4.8,3.4,3.4*3C
7,25*7F
$GPGSV,3,2,09,02,25,285,,23,22,074,23,10,11,217,,20,10,039,30*77
$GPGSV,3,3,09,12,06,320,28*4E
$GPRMC,045949.000,A,2409.0813,N,12040.1456,E,0.00,,050207,,,A*71
$GPGGA,045950.000,2409.0813,N,12040.1456,E,1,05,1.5,138.6,M,,,,0000*0B
$GPGSA,A,3,17,04,28,13,20,,,,,,,,2.5,1.5,2.0*3B
207,,,A*79
$GPGGA,045951.000,2409.0813,N,12040.1456,E,1,05,1.5,138.6,M,,,,0000*0A
$GPGSA,A,3,17,04,28,13,20,,,,,,,,2.5,1.5,2.0*3B
50207,,,A*78
$GPGGA,045952.000,2409.0813,N,12040.1456,E,1,05,1.5,138.6,M,,,,0000*09
$GPGSA,A,3,17,04,28,13,20,,,,,,,,2.5,1.5,2.0*3B
207,,,A*7B
$GPGGA,045953.000,2409.0813,N,12040.1456,E,1,05,1.5,138.6,M,,,,0000*08
$GPGSA,A,3,17,04,28,13,20,,,,,,,,2.5,1.5,2.0*3B
07,,,A*7A
$GPGGA,045954.000,2409.0813,N,12040.1456,E,1,05,1.5,138.6,M,,,,0000*0F
$GPGSA,A,3,17,04,28,13,20,,,,,,,,2.5,1.5,2.0*3B
9,33,28,28,177,26*7A
$GPGSV,3,2,09,02,25,285,,23,22,074,20,10,11,217,,20,10,039,30*74
$GPGSV,3,3,09,12,06,320,28*4E
$GPRMC,045954.000,A,2409.0813,N,12040.1456,E,0.00,,050207,,,A*7D
$GPGGA,045955.000,2409.0813,N,12040.1456,E,1,05,1.5,138.6,M,,,,0000*0E
$GPGSA,A,3,17,04,28,13,20,,,,,,,,2.5,1.5,2.0*3B
,050207,,,A*7C
$GPGGA,045956.000,2409.0813,N,12040.1456,E,1,05,1.5,138.6,M,,,,0000*0D
$GPGSA,A,3,17,04,28,13,20,,,,,,,,2.5,1.5,2.0*3B
,050207,,,A*7F
$GPGGA,045957.000,2409.0813,N,12040.1456,E,1,05,1.5,138.6,M,,,,0000*0C
$GPGSA,A,3,17,04,28,13,20,,,,,,,,2.5,1.5,2.0*3B
0,,050207,,,A*7E
$GPGGA,045958.000,2409.0813,N,12040.1456,E,1,05,1.5,138.6,M,,,,0000*03
$GPGSA,A,3,17,04,28,13,20,,,,,,,,2.5,1.5,2.0*3B
E,0.00,,050207,,,A*71
$GPGGA,045959.000,2409.0813,N,12040.1456,E,1,05,1.5,138.6,M,,,,0000*02
$GPGSA,A,3,17,04,28,13,20,,,,,,,,2.5,1.5,2.0*3B
29,109,23,28,28,177,30*78
$GPGSV,3,2,09,02,25,285,,23,22,074,22,10,11,217,,20,10,039,31*77
$GPGSV,3,3,09,12,06,320,30*47
$GPRMC,045959.000,A,2409.0813,N,12040.1456,E,0.00,,050207,,,A*70
$GPGGA,050000.000,2409.0813,N,12040.1456,E,1,05,1.5,138.6,M,,,,0000*03
$GPGSA,A,3,17,04,28,13,20,,,,,,,,2.5,1.5,2.0*3B
6,E,0.00,,050207,,,A*71
$GPGGA,050000.999,2409.0813,N,12040.1456,E,1,05,1.5,138.6,M,,,,0000*0A
$GPGSA,A,3,17,04,28,13,20,,,,,,,,2.5,1.5,2.0*3B
.00,,050207,,,A*78
$GPGGA,050001.999,2409.0813,N,12040.1456,E,1,05,1.5,138.6,M,,,,0000*0B
$GPGSA,A,3,17,04,28,13,20,,,,,,,,2.5,1.5,2.0*3B
,E,0.00,,050207,,,A*79
$GPGGA,050002.999,2409.0813,N,12040.1456,E,1,05,1.5,138.6,M,,,,0000*08
$GPGSA,A,3,17,04,28,13,20,,,,,,,,2.5,1.5,2.0*3B
6,E,0.00,,050207,,,A*7A
$GPGGA,050003.999,2409.0813,N,12040.1456,E,1,05,1.5,138.6,M,,,,0000*09
$GPGSA,A,3,17,04,28,13,20,,,,,,,,2.5,1.5,2.0*3B
29,109,26,28,28,177,30*79
$GPGSV,3,2,09,02,25,285,,23,22,074,21,10,11,217,,20,10,039,30*75
$GPGSV,3,3,09,12,06,320,29*4F
$GPRMC,050003.999,A,2409.0813,N,12040.1456,E,0.00,,050207,,,A*7B
$GPGGA,050004.999,2409.0813,N,12040.1456,E,1,05,1.5,138.6,M,,,,0000*0E
$GPGSA,A,3,17,04,28,13,20,,,,,,,,2.5,1.5,2.0*3B
.1456,E,0.00,,050207,,,A*7C
$GPGGA,050005.999,2409.0813,N,12040.1456,E,1,05,1.5,138.6,M,,,,0000*0F
$GPGSA,A,3,17,04,28,13,20,,,,,,,,2.5,1.5,2.0*3B
,E,0.00,,050207,,,A*7D
$GPGGA,050006.999,2409.0782,N,12040.1439,E,1,05,1.5,126.1,M,,,,0000*0A
$GPGSA,A,3,17,04,28,13,20,,,,,,,,2.5,1.5,2.0*3B
39,E,0.00,,050207,,,A*70
$GPGGA,050007.999,2409.0782,N,12040.1439,E,1,05,1.5,126.1,M,,,,0000*0B
$GPGSA,A,3,17,04,28,13,20,,,,,,,,2.5,1.5,2.0*3B
,0.00,,050207,,,A*71
$GPGGA,050008.999,2409.0782,N,12040.1439,E,1,05,1.5,126.1,M,,,,0000*04
$GPGSA,A,3,17,04,28,13,20,,,,,,,,2.5,1.5,2.0*3B
,29,109,21,28,28,177,31*7A
$GPGSV,3,2,09,02,25,285,,23,22,074,20,10,11,217,,20,10,039,29*7C
$GPGSV,3,3,09,12,06,320,31*46
$GPRMC,050008.999,A,2409.0782,N,12040.1439,E,0.00,,050207,,,A*7E
$GPGGA,050009.999,2409.0782,N,12040.1439,E,1,05,1.5,126.1,M,,,,0000*05
$GPGSA,A,3,17,04,28,13,20,,,,,,,,2.5,1.5,2.0*3B
E,0.00,,050207,,,A*7F
$GPGGA,050010.999,2409.0782,N,12040.1439,E,1,05,1.5,126.1,M,,,,0000*0D
$GPGSA,A,3,17,04,28,13,20,,,,,,,,2.5,1.5,2.0*3B
00,,050207,,,A*77
$GPGGA,050011.999,2409.0782,N,12040.1439,E,1,05,1.5,126.1,M,,,,0000*0C
$GPGSA,A,3,17,04,28,13,20,,,,,,,,2.5,1.5,2.0*3B
,0.00,,050207,,,A*76
$GPGGA,050012.999,2409.0782,N,12040.1439,E,1,05,1.5,126.1,M,,,,0000*0F
$GPGSA,A,3,17,04,28,13,20,,,,,,,,2.5,1.5,2.0*3B
.00,,050207,,,A*75
$GPGGA,050013.999,2409.0782,N,12040.1439,E,1,05,1.5,126.1,M,,,,0000*0E
$GPGSA,A,3,17,04,28,13,20,,,,,,,,2.5,1.5,2.0*3B
15,28,28,177,31*7E
$GPGSV,3,2,09,02,25,285,,23,22,074,18,10,11,217,,20,10,039,30*7F
$GPGSV,3,3,09,12,06,320,28*4E
$GPRMC,050013.999,A,2409.0782,N,12040.1439,E,0.00,,050207,,,A*74
$GPGGA,050014.999,2409.0782,N,12040.1439,E,1,05,1.5,126.1,M,,,,0000*09
$GPGSA,A,3,17,04,28,13,20,,,,,,,,2.5,1.5,2.0*3B
0207,,,A*73
$GPGGA,050015.999,2409.0782,N,12040.1439,E,1,04,2.1,126.1,M,,,,0000*0E
$GPGSA,A,3,17,04,28,20,,,,,,,,,3.0,2.1,2.1*3B
*72
$GPGGA,050016.998,2409.0782,N,12040.1439,E,1,04,2.1,126.1,M,,,,0000*0C
$GPGSA,A,3,17,04,28,20,,,,,,,,,3.0,2.1,2.1*3B
207,,,A*70
$GPGGA,050017.998,2409.0782,N,12040.1439,E,1,04,2.1,126.1,M,,,,0000*0D
$GPGSA,A,3,17,04,28,20,,,,,,,,,3.0,2.1,2.1*3B
050207,,,A*71
$GPGGA,050018.998,2409.0782,N,12040.1439,E,1,04,2.1,126.1,M,,,,0000*02
$GPGSA,A,3,17,04,28,20,,,,,,,,,3.0,2.1,2.1*3B
,28,177,32*76
$GPGSV,3,2,09,02,25,285,,23,22,074,20,10,11,217,,20,10,039,29*7C
$GPGSV,3,3,09,12,06,320,27*41
$GPRMC,050018.998,A,2409.0782,N,12040.1439,E,0.00,,050207,,,A*7E
$GPGGA,050019.998,2409.0782,N,12040.1439,E,1,04,2.1,126.1,M,,,,0000*03
$GPGSA,A,3,17,04,28,20,,,,,,,,,3.0,2.1,2.1*3B
,,A*7F
$GPGGA,050020.998,2409.0782,N,12040.1439,E,1,05,1.5,126.1,M,,,,0000*0F
$GPGSA,A,3,17,04,28,13,20,,,,,,,,2.5,1.5,2.0*3B
,050207,,,A*75
$GPGGA,050021.998,2409.0782,N,12040.1439,E,1,05,1.5,126.1,M,,,,0000*0E
$GPGSA,A,3,17,04,28,13,20,,,,,,,,2.5,1.5,2.0*3B
0207,,,A*74
$GPGGA,050022.998,2409.0782,N,12040.1439,E,1,05,1.5,126.1,M,,,,0000*0D
$GPGSA,A,3,17,04,28,13,20,,,,,,,,2.5,1.5,2.0*3B
207,,,A*77
$GPGGA,050023.998,2409.0782,N,12040.1439,E,1,05,1.5,126.1,M,,,,0000*0C
$GPGSA,A,3,17,04,28,13,20,,,,,,,,2.5,1.5,2.0*3B
,28,28,177,28*79
$GPGSV,3,2,09,02,25,285,,23,22,074,20,10,11,217,,20,10,039,28*7D
$GPGSV,3,3,09,12,06,320,29*4F
$GPRMC,050023.998,A,2409.0782,N,12040.1439,E,0.00,,050207,,,A*76
$GPGGA,050024.998,2409.0782,N,12040.1439,E,1,05,1.5,126.1,M,,,,0000*0B
$GPGSA,A,3,17,04,28,13,20,,,,,,,,2.5,1.5,2.0*3B
0207,,,A*71
$GPGGA,050025.998,2409.0782,N,12040.1439,E,1,05,1.5,126.1,M,,,,0000*0A
$GPGSA,A,3,17,04,28,13,20,,,,,,,,2.5,1.5,2.0*3B
050207,,,A*70
$GPGGA,050026.998,2409.0782,N,12040.1439,E,1,05,1.5,126.1,M,,,,0000*09
$GPGSA,A,3,17,04,28,13,20,,,,,,,,2.5,1.5,2.0*3B
.00,,050207,,,A*73
$GPGGA,050027.998,2409.0782,N,12040.1439,E,1,05,1.5,126.1,M,,,,0000*08
$GPGSA,A,3,17,04,28,13,20,,,,,,,,2.5,1.5,2.0*3B
,,050207,,,A*72
$GPGGA,050028.998,2409.0782,N,12040.1439,E,1,05,1.5,126.1,M,,,,0000*07
$GPGSA,A,3,17,04,28,13,20,,,,,,,,2.5,1.5,2.0*3B
8,28,177,20*7B
$GPGSV,3,2,09,02,25,285,,23,22,074,22,10,11,217,,20,10,039,29*7E
$GPGSV,3,3,09,12,06,320,28*4E
$GPRMC,050028.998,A,2409.0782,N,12040.1439,E,0.00,,050207,,,A*7D
$GPGGA,050029.998,2409.0782,N,12040.1439,E,1,05,1.5,126.1,M,,,,0000*06
$GPGSA,A,3,17,04,28,13,20,,,,,,,,2.5,1.5,2.0*3B
07,,,A*7C
$GPGGA,050030.998,2409.0782,N,12040.1439,E,1,05,1.5,126.1,M,,,,0000*0E
$GPGSA,A,3,17,04,28,13,20,,,,,,,,2.5,1.5,2.0*3B
50207,,,A*74
$GPGGA,050031.998,2409.0782,N,12040.1439,E,1,05,1.5,126.1,M,,,,0000*0F
$GPGSA,A,3,17,04,28,13,20,,,,,,,,2.5,1.5,2.0*3B
50207,,,A*75
$GPGGA,050032.998,2409.0782,N,12040.1439,E,1,05,1.5,126.1,M,,,,0000*0C
$GPGSA,A,3,17,04,28,13,20,,,,,,,,2.5,1.5,2.0*3B
50207,,,A*76
$GPGGA,050033.997,2409.0782,N,12040.1439,E,1,05,1.5,126.1,M,,,,0000*02
$GPGSA,A,3,17,04,28,13,20,,,,,,,,2.5,1.5,2.0*3B
,28,28,177,26*71
$GPGSV,3,2,09,02,25,285,,23,22,074,22,10,11,217,,20,10,039,29*7E
$GPGSV,3,3,09,12,06,320,29*4F
$GPRMC,050033.997,A,2409.0782,N,12040.1439,E,0.00,,050207,,,A*78
$GPGGA,050034.997,2409.0782,N,12040.1439,E,1,05,1.5,126.1,M,,,,0000*05
$GPGSA,A,3,17,04,28,13,20,,,,,,,,2.5,1.5,2.0*3B
,050207,,,A*7F
$GPGGA,050035.997,2409.0782,N,12040.1439,E,1,05,1.5,126.1,M,,,,0000*04
$GPGSA,A,3,17,04,28,13,20,,,,,,,,2.5,1.5,2.0*3B
0207,,,A*7E
$GPGGA,050036.997,2409.0782,N,12040.1439,E,1,05,1.5,126.1,M,,,,0000*07
$GPGSA,A,3,17,04,28,13,20,,,,,,,,2.5,1.5,2.0*3B
207,,,A*7D
$GPGGA,050037.997,2409.0782,N,12040.1439,E,1,05,1.5,126.1,M,,,,0000*06
$GPGSA,A,3,17,04,28,13,20,,,,,,,,2.5,1.5,2.0*3B
050207,,,A*7C
$GPGGA,050038.997,2409.0782,N,12040.1439,E,1,05,1.5,126.1,M,,,,0000*09
$GPGSA,A,3,17,04,28,13,20,,,,,,,,2.5,1.5,2.0*3B
,28,177,21*75
$GPGSV,3,2,09,02,25,285,,23,22,074,22,10,11,217,,20,10,039,30*76
$GPGSV,3,3,09,12,06,320,28*4E
$GPRMC,050038.997,A,2409.0782,N,12040.1439,E,0.00,,050207,,,A*73
$GPGGA,050039.997,2409.0782,N,12040.1439,E,1,05,1.5,126.1,M,,,,0000*08
$GPGSA,A,3,17,04,28,13,20,,,,,,,,2.5,1.5,2.0*3B
50207,,,A*72
$GPGGA,050040.997,2409.0782,N,12040.1439,E,1,05,1.5,126.1,M,,,,0000*06
$GPGSA,A,3,17,04,28,13,20,,,,,,,,2.5,1.5,2.0*3B
050207,,,A*7C
$GPGGA,050041.997,2409.0782,N,12040.1439,E,1,05,1.5,126.1,M,,,,0000*07
$GPGSA,A,3,17,04,28,13,20,,,,,,,,2.5,1.5,2.0*3B
0.00,,050207,,,A*7D
$GPGGA,050042.997,2409.0782,N,12040.1439,E,1,05,1.5,126.1,M,,,,0000*04
$GPGSA,A,3,17,04,28,13,20,,,,,,,,2.5,1.5,2.0*3B
050207,,,A*7E
$GPGGA,050043.997,2409.0782,N,12040.1439,E,1,05,1.5,126.1,M,,,,0000*05
$GPGSA,A,3,17,04,28,13,20,,,,,,,,2.5,1.5,2.0*3B
9,109,37,28,27,177,21*72
$GPGSV,3,2,09,02,26,285,,23,22,073,,10,12,217,,20,10,039,30*71
$GPGSV,3,3,09,12,06,320,27*41
$GPRMC,050043.997,A,2409.0782,N,12040.1439,E,0.00,,050207,,,A*7F
$GPGGA,050044.997,2409.0782,N,12040.1439,E,1,05,1.5,126.1,M,,,,0000*02
$GPGSA,A,3,17,04,28,13,20,,,,,,,,2.5,1.5,2.0*3B
00,,050207,,,A*78
$GPGGA,050045.997,2409.0782,N,12040.1439,E,1,05,1.5,126.1,M,,,,0000*03
$GPGSA,A,3,17,04,28,13,20,,,,,,,,2.5,1.5,2.0*3B
,,050207,,,A*79
$GPGGA,050046.997,2409.0782,N,12040.1439,E,1,05,1.5,126.1,M,,,,0000*00
$GPGSA,A,3,17,04,28,13,20,,,,,,,,2.5,1.5,2.0*3B
,0.00,,050207,,,A*7A
$GPGGA,050047.997,2409.0782,N,12040.1439,E,1,05,1.5,126.1,M,,,,0000*01
$GPGSA,A,3,17,04,28,13,20,,,,,,,,2.5,1.5,2.0*3B
E,0.00,,050207,,,A*7B
$GPGGA,050048.997,2409.0782,N,12040.1439,E,1,05,1.5,126.1,M,,,,0000*0E
$GPGSA,A,3,17,04,28,13,20,,,,,,,,2.5,1.5,2.0*3B
09,38,28,27,177,25*77
$GPGSV,3,2,09,02,26,285,,23,22,073,,10,12,217,,20,10,039,29*79
$GPGSV,3,3,09,12,06,320,23*45
$GPRMC,050048.997,A,2409.0782,N,12040.1439,E,0.00,,050207,,,A*74
$GPGGA,050049.996,2409.0782,N,12040.1439,E,1,05,1.5,126.1,M,,,,0000*0E
$GPGSA,A,3,17,04,28,13,20,,,,,,,,2.5,1.5,2.0*3B
050207,,,A*74
$GPGGA,050050.996,2409.0782,N,12040.1439,E,1,05,1.5,126.1,M,,,,0000*06
$GPGSA,A,3,17,04,28,13,20,,,,,,,,2.5,1.5,2.0*3B
0207,,,A*7C
$GPGGA,050051.996,2409.0782,N,12040.1439,E,1,05,1.5,126.1,M,,,,0000*07
$GPGSA,A,3,17,04,28,13,20,,,,,,,,2.5,1.5,2.0*3B
207,,,A*7D
$GPGGA,050052.996,2409.0782,N,12040.1439,E,1,05,1.5,126.1,M,,,,0000*04
$GPGSA,A,3,17,04,28,13,20,,,,,,,,2.5,1.5,2.0*3B
50207,,,A*7E
$GPGGA,050053.996,2409.0782,N,12040.1439,E,1,05,1.5,126.1,M,,,,0000*05
$GPGSA,A,3,17,04,28,13,20,,,,,,,,2.5,1.5,2.0*3B
9,37,28,27,177,27*79
$GPGSV,3,2,09,02,26,285,,23,22,073,,10,12,217,,20,10,039,30*71
$GPGSV,3,3,09,12,06,320,20*46
$GPRMC,050053.996,A,2409.0782,N,12040.1439,E,0.00,,050207,,,A*7F
$GPGGA,050054.996,2409.0782,N,12040.1439,E,1,05,1.5,126.1,M,,,,0000*02
$GPGSA,A,3,17,04,28,13,20,,,,,,,,2.5,1.5,2.0*3B
07,,,A*78
$GPGGA,050055.996,2409.0782,N,12040.1439,E,1,05,1.5,126.1,M,,,,0000*03
$GPGSA,A,3,17,04,28,13,20,,,,,,,,2.5,1.5,2.0*3B
0207,,,A*79
$GPGGA,050056.996,2409.0782,N,12040.1439,E,1,05,1.5,126.1,M,,,,0000*00
$GPGSA,A,3,17,04,28,13,20,,,,,,,,2.5,1.5,2.0*3B
207,,,A*7A
$GPGGA,050057.996,2409.0782,N,12040.1439,E,1,05,1.5,126.1,M,,,,0000*01
$GPGSA,A,3,17,04,28,13,20,,,,,,,,2.5,1.5,2.0*3B
07,,,A*7B
$GPGGA,050058.996,2409.0782,N,12040.1439,E,1,05,1.5,126.1,M,,,,0000*0E
$GPGSA,A,3,17,04,28,13,20,,,,,,,,2.5,1.5,2.0*3B
38,28,27,177,28*78
$GPGSV,3,2,09,02,26,285,,23,22,073,,10,12,217,,20,10,039,30*71
$GPGSV,3,3,09,12,06,320,18*4D
$GPRMC,050058.996,A,2409.0782,N,12040.1439,E,0.00,,050207,,,A*74
$GPGGA,050059.996,2409.0782,N,12040.1439,E,1,05,1.5,126.1,M,,,,0000*0F
$GPGSA,A,3,17,04,28,13,20,,,,,,,,2.5,1.5,2.0*3B
207,,,A*75
$GPGGA,050100.996,2409.0782,N,12040.1439,E,1,05,1.5,126.1,M,,,,0000*02
$GPGSA,A,3,17,04,28,13,20,,,,,,,,2.5,1.5,2.0*3B
0,,050207,,,A*78
$GPGGA,050101.996,2409.0762,N,12040.1430,E,1,05,1.5,112.1,M,,,,0000*03
$GPGSA,A,3,17,04,28,13,20,,,,,,,,2.5,1.5,2.0*3B
,050207,,,A*7E
$GPGGA,050102.996,2409.0762,N,12040.1430,E,1,05,1.5,112.1,M,,,,0000*00
$GPGSA,A,3,17,04,28,13,20,,,,,,,,2.5,1.5,2.0*3B
,,050207,,,A*7D
$GPGGA,050103.996,2409.0762,N,12040.1430,E,1,05,1.5,112.1,M,,,,0000*01
$GPGSA,A,3,17,04,28,13,20,,,,,,,,2.5,1.5,2.0*3B
177,29*7F
$GPGSV,3,2,09,02,26,285,,23,22,073,,10,12,217,,20,10,039,31*70
$GPGSV,3,3,09,12,06,320,16*43
$GPRMC,050103.996,A,2409.0762,N,12040.1430,E,0.00,,050207,,,A*7C
$GPGGA,050104.996,2409.0762,N,12040.1430,E,1,05,1.5,112.1,M,,,,0000*06
$GPGSA,A,3,17,04,28,13,20,,,,,,,,2.5,1.5,2.0*3B
,A*7B
$GPGGA,050105.996,2409.0762,N,12040.1430,E,1,05,1.5,112.1,M,,,,0000*07
$GPGSA,A,3,17,04,28,13,20,,,,,,,,2.5,1.5,2.0*3B
,A*7A
$GPGGA,050106.995,2409.0762,N,12040.1430,E,1,05,1.5,112.1,M,,,,0000*07
$GPGSA,A,3,17,04,28,13,20,,,,,,,,2.5,1.5,2.0*3B
,,A*7A
$GPGGA,050107.995,2409.0762,N,12040.1430,E,1,05,1.5,112.1,M,,,,0000*06
$GPGSA,A,3,17,04,28,13,20,,,,,,,,2.5,1.5,2.0*3B
*7B
$GPGGA,050108.995,2409.0762,N,12040.1430,E,1,05,1.5,112.1,M,,,,0000*09
$GPGSA,A,3,17,04,28,13,20,,,,,,,,2.5,1.5,2.0*3B
2*72
$GPGSV,3,2,09,02,26,285,,23,22,073,,10,12,217,,20,10,039,30*71
$GPGSV,3,3,09,12,06,320,16*43
$GPRMC,050108.995,A,2409.0762,N,12040.1430,E,0.00,,050207,,,A*74
$GPGGA,050109.995,2409.0762,N,12040.1430,E,1,05,1.5,112.1,M,,,,0000*08
$GPGSA,A,3,17,04,28,13,20,,,,,,,,2.5,1.5,2.0*3B
*75
$GPGGA,050110.995,2409.0762,N,12040.1430,E,1,05,1.5,112.1,M,,,,0000*00
$GPGSA,A,3,17,04,28,13,20,,,,,,,,2.5,1.5,2.0*3B
$GPRMC,050110.995,A,2409.0762,N,12040.1430,E,0.00,,050207,,,A*7D
$GPGGA,050111.995,2409.0762,N,12040.1430,E,1,05,1.5,112.1,M,,,,0000*01
$GPGSA,A,3,17,04,28,13,20,,,,,,,,2.5,1.5,2.0*3B
A*7C
$GPGGA,050112.995,2409.0762,N,12040.1430,E,1,05,1.5,112.1,M,,,,0000*02
$GPGSA,A,3,17,04,28,13,20,,,,,,,,2.5,1.5,2.0*3B
$GPRMC,050112.995,A,2409.0762,N,12040.1430,E,0.00,,050207,,,A*7F
$GPGGA,050113.995,2409.0762,N,12040.1430,E,1,05,1.5,112.1,M,,,,0000*03
$GPGSA,A,3,17,04,28,13,20,,,,,,,,2.5,1.5,2.0*3B
7D
$GPGSV,3,2,09,02,26,285,,23,22,073,,10,12,217,,20,09,039,30*79
$GPGSV,3,3,09,12,06,320,16*43
$GPRMC,050113.995,A,2409.0762,N,12040.1430,E,0.00,,050207,,,A*7E
$GPGGA,050114.995,2409.0762,N,12040.1430,E,1,05,1.5,112.1,M,,,,0000*04
$GPGSA,A,3,17,04,28,13,20,,,,,,,,2.5,1.5,2.0*3B
79
$GPGGA,050115.995,2409.0762,N,12040.1430,E,1,05,1.5,112.1,M,,,,0000*05
$GPGSA,A,3,17,04,28,13,20,,,,,,,,2.5,1.5,2.0*3B
78
$GPGGA,050116.995,2409.0762,N,12040.1430,E,1,05,1.5,112.1,M,,,,0000*06
$GPGSA,A,3,17,04,28,13,20,,,,,,,,2.5,1.5,2.0*3B
,A*7B
$GPGGA,050117.995,2409.0762,N,12040.1430,E,1,05,1.5,112.1,M,,,,0000*07
$GPGSA,A,3,17,04,28,13,20,,,,,,,,2.5,1.5,2.0*3B
07,,,A*7A
$GPGGA,050118.995,2409.0762,N,12040.1430,E,1,05,1.5,112.1,M,,,,0000*08
$GPGSA,A,3,17,04,28,13,20,,,,,,,,2.5,1.5,2.0*3B
31*7C
$GPGSV,3,2,09,02,26,285,,23,22,073,,10,12,217,,20,09,039,28*70
$GPGSV,3,3,09,12,06,320,16*43
$GPRMC,050118.995,A,2409.0762,N,12040.1430,E,0.00,,050207,,,A*75
$GPGGA,050119.995,2409.0762,N,12040.1430,E,1,05,1.5,112.1,M,,,,0000*09
$GPGSA,A,3,17,04,28,13,20,,,,,,,,2.5,1.5,2.0*3B
,,A*74
$GPGGA,050120.995,2409.0762,N,12040.1430,E,1,05,1.5,112.1,M,,,,0000*03
$GPGSA,A,3,17,04,28,13,20,,,,,,,,2.5,1.5,2.0*3B
7,,,A*7E
$GPGGA,050121.995,2409.0762,N,12040.1430,E,1,05,1.5,112.1,M,,,,0000*02
$GPGSA,A,3,17,04,28,13,20,,,,,,,,2.5,1.5,2.0*3B
*7F
$GPGGA,050122.995,2409.0762,N,12040.1430,E,1,05,1.5,112.1,M,,,,0000*01
$GPGSA,A,3,17,04,28,13,20,,,,,,,,2.5,1.5,2.0*3B
07,,,A*7C
$GPGGA,050123.994,2409.0762,N,12040.1430,E,1,05,1.5,112.1,M,,,,0000*01
$GPGSA,A,3,17,04,28,13,20,,,,,,,,2.5,1.5,2.0*3B
30*7C
$GPGSV,3,2,09,02,26,285,25,23,22,073,,10,12,217,,20,09,039,29*76
$GPGSV,3,3,09,12,06,320,16*43
$GPRMC,050123.994,A,2409.0762,N,12040.1430,E,0.00,,050207,,,A*7C
$GPGGA,050124.994,2409.0762,N,12040.1430,E,1,05,1.5,112.1,M,,,,0000*06
$GPGSA,A,3,17,04,28,13,20,,,,,,,,2.5,1.5,2.0*3B
,050207,,,A*7B
$GPGGA,050125.994,2409.0762,N,12040.1430,E,1,05,1.5,112.1,M,,,,0000*07
$GPGSA,A,3,17,04,28,13,20,,,,,,,,2.5,1.5,2.0*3B
07,,,A*7A
$GPGGA,050126.994,2409.0762,N,12040.1430,E,1,05,1.5,112.1,M,,,,0000*04
$GPGSA,A,3,17,04,28,13,20,,,,,,,,2.5,1.5,2.0*3B
,A*79
$GPGGA,050127.994,2409.0762,N,12040.1430,E,1,05,1.5,112.1,M,,,,0000*05
$GPGSA,A,3,17,04,28,13,20,,,,,,,,2.5,1.5,2.0*3B
,,A*78
$GPGGA,050128.994,2409.0762,N,12040.1430,E,1,05,1.5,112.1,M,,,,0000*0A
$GPGSA,A,3,17,04,28,13,20,,,,,,,,2.5,1.5,2.0*3B
177,31*73
$GPGSV,3,2,09,02,26,285,23,23,22,073,22,10,12,217,,20,09,039,29*70
$GPGSV,3,3,09,12,06,320,*44
$GPRMC,050128.994,A,2409.0762,N,12040.1430,E,0.00,,050207,,,A*77
$GPGGA,050129.994,2409.0762,N,12040.1430,E,1,05,1.5,112.1,M,,,,0000*0B
$GPGSA,A,3,17,04,28,13,20,,,,,,,,2.5,1.5,2.0*3B

$GPGGA,050130.994,2409.0762,N,12040.1430,E,1,05,1.5,112.1,M,,,,0000*03
$GPGSA,A,3,17,04,28,13,20,,,,,,,,2.5,1.5,2.0*3B
*7E
$GPGGA,050131.994,2409.0762,N,12040.1430,E,1,05,1.5,112.1,M,,,,0000*02
$GPGSA,A,3,17,04,28,13,20,,,,,,,,2.5,1.5,2.0*3B
,,,A*7F
$GPGGA,050132.994,2409.0762,N,12040.1430,E,1,05,1.5,112.1,M,,,,0000*01
$GPGSA,A,3,17,04,28,13,20,,,,,,,,2.5,1.5,2.0*3B
,,,A*7C
$GPGGA,050133.994,2409.0762,N,12040.1430,E,1,05,1.5,112.1,M,,,,0000*00
$GPGSA,A,3,17,04,28,13,20,,,,,,,,2.5,1.5,2.0*3B
8,28,27,177,30*75
$GPGSV,3,2,09,02,26,285,23,23,22,073,18,10,12,217,,20,09,039,28*78
$GPGSV,3,3,09,12,06,320,*44
$GPRMC,050133.994,A,2409.0762,N,12040.1430,E,0.00,,050207,,,A*7D
$GPGGA,050134.994,2409.0762,N,12040.1430,E,1,05,1.5,112.1,M,,,,0000*07
$GPGSA,A,3,17,04,28,13,20,,,,,,,,2.5,1.5,2.0*3B
0,,050207,,,A*7A
$GPGGA,050135.994,2409.0762,N,12040.1430,E,1,05,1.5,112.1,M,,,,0000*06
$GPGSA,A,3,17,04,28,13,20,,,,,,,,2.5,1.5,2.0*3B
.00,,050207,,,A*7B
$GPGGA,050136.994,2409.0762,N,12040.1430,E,1,05,1.5,112.1,M,,,,0000*05
$GPGSA,A,3,17,04,28,13,20,,,,,,,,2.5,1.5,2.0*3B
E,0.00,,050207,,,A*78
$GPGGA,050137.994,2409.0762,N,12040.1430,E,1,04,2.1,112.1,M,,,,0000*02
$GPGSA,A,3,17,04,28,13,,,,,,,,,4.8,2.1,4.4*37
0,,050207,,,A*79
$GPGGA,050138.994,2409.0762,N,12040.1430,E,1,05,1.5,112.1,M,,,,0000*0B
$GPGSA,A,3,17,04,28,13,20,,,,,,,,2.5,1.5,2.0*3B
,108,37,28,27,177,32*77
$GPGSV,3,2,09,02,26,285,23,23,22,073,19,10,12,217,,20,09,039,27*76
$GPGSV,3,3,09,12,06,320,23*45
$GPRMC,050138.994,A,2409.0762,N,12040.1430,E,0.00,,050207,,,A*76
$GPGGA,050139.993,2409.0762,N,12040.1430,E,1,05,1.5,112.1,M,,,,0000*0D
$GPGSA,A,3,17,04,28,13,20,,,,,,,,2.5,1.5,2.0*3B
,,050207,,,A*70
$GPGGA,050140.993,2409.0762,N,12040.1430,E,1,05,1.5,112.1,M,,,,0000*03
$GPGSA,A,3,17,04,28,13,20,,,,,,,,2.5,1.5,2.0*3B
050207,,,A*7E
$GPGGA,050141.993,2409.0762,N,12040.1430,E,1,05,1.5,112.1,M,,,,0000*02
$GPGSA,A,3,17,04,28,13,20,,,,,,,,2.5,1.5,2.0*3B
0.00,,050207,,,A*7F
$GPGGA,050142.993,2409.0762,N,12040.1430,E,1,05,1.5,112.1,M,,,,0000*01
$GPGSA,A,3,17,04,28,13,20,,,,,,,,2.5,1.5,2.0*3B
,050207,,,A*7C
$GPGGA,050143.993,2409.0762,N,12040.1430,E,1,05,1.5,112.1,M,,,,0000*00
$GPGSA,A,3,17,04,28,13,20,,,,,,,,2.5,1.5,2.0*3B
6,28,27,177,35*7F
$GPGSV,3,2,09,02,26,286,23,23,22,073,19,10,12,217,,20,09,039,28*7A
$GPGSV,3,3,09,12,06,320,23*45
$GPRMC,050143.993,A,2409.0762,N,12040.1430,E,0.00,,050207,,,A*7D
$GPGGA,050144.993,2409.0762,N,12040.1430,E,1,05,1.5,112.1,M,,,,0000*07
$GPGSA,A,3,17,04,28,13,20,,,,,,,,2.5,1.5,2.0*3B
,050207,,,A*7A
$GPGGA,050145.993,2409.0762,N,12040.1430,E,1,05,1.5,112.1,M,,,,0000*06
$GPGSA,A,3,17,04,28,13,20,,,,,,,,2.5,1.5,2.0*3B
050207,,,A*7B
$GPGGA,050146.993,2409.0762,N,12040.1430,E,1,05,1.5,112.1,M,,,,0000*05
$GPGSA,A,3,17,04,28,13,20,,,,,,,,2.5,1.5,2.0*3B
050207,,,A*78
$GPGGA,050147.993,2409.0762,N,12040.1430,E,1,05,1.5,112.1,M,,,,0000*04
$GPGSA,A,3,17,04,28,13,20,,,,,,,,2.5,1.5,2.0*3B
00,,050207,,,A*79
$GPGGA,050148.993,2409.0762,N,12040.1430,E,1,05,1.5,112.1,M,,,,0000*0B
$GPGSA,A,3,17,04,28,13,20,,,,,,,,2.5,1.5,2.0*3B
7,28,27,176,35*7E
$GPGSV,3,2,09,02,26,286,23,23,22,073,21,10,12,217,,20,09,039,27*7E
$GPGSV,3,3,09,12,06,320,23*45
$GPRMC,050148.993,A,2409.0762,N,12040.1430,E,0.00,,050207,,,A*76
$GPGGA,050149.993,2409.0762,N,12040.1430,E,1,05,1.5,112.1,M,,,,0000*0A
$GPGSA,A,3,17,04,28,13,20,,,,,,,,2.5,1.5,2.0*3B
,,050207,,,A*77
$GPGGA,050150.993,2409.0762,N,12040.1430,E,1,05,1.5,112.1,M,,,,0000*02
$GPGSA,A,3,17,04,28,13,20,,,,,,,,2.5,1.5,2.0*3B
,,050207,,,A*7F
$GPGGA,050151.993,2409.0762,N,12040.1430,E,1,05,1.5,112.1,M,,,,0000*03
$GPGSA,A,3,17,04,28,13,20,,,,,,,,2.5,1.5,2.0*3B
,,050207,,,A*7E
$GPGGA,050152.993,2409.0762,N,12040.1430,E,1,05,1.5,112.1,M,,,,0000*00
$GPGSA,A,3,17,04,28,13,20,,,,,,,,2.5,1.5,2.0*3B
07,,,A*7D
$GPGGA,050153.993,2409.0762,N,12040.1430,E,1,05,1.5,112.1,M,,,,0000*01
$GPGSA,A,3,17,04,28,13,20,,,,,,,,2.5,1.5,2.0*3B
,28,27,176,32*76
$GPGSV,3,2,09,02,26,286,23,23,22,073,17,10,12,217,,20,09,039,26*7A
$GPGSV,3,3,09,12,06,320,23*45
$GPRMC,050153.993,A,2409.0762,N,12040.1430,E,0.00,,050207,,,A*7C
$GPGGA,050154.993,2409.0762,N,12040.1430,E,1,05,1.5,112.1,M,,,,0000*06
$GPGSA,A,3,17,04,28,13,20,,,,,,,,2.5,1.5,2.0*3B
07,,,A*7B
$GPGGA,050155.993,2409.0762,N,12040.1430,E,1,05,1.5,112.1,M,,,,0000*07
$GPGSA,A,3,17,04,28,13,20,,,,,,,,2.5,1.5,2.0*3B
07,,,A*7A
$GPGGA,050156.992,2409.0762,N,12040.1430,E,1,05,1.5,112.1,M,,,,0000*05
$GPGSA,A,3,17,04,28,13,20,,,,,,,,2.5,1.5,2.0*3B
,,,A*78
$GPGGA,050157.992,2409.0762,N,12040.1430,E,1,05,1.5,112.1,M,,,,0000*04
$GPGSA,A,3,17,04,28,13,20,,,,,,,,2.5,1.5,2.0*3B
,A*79
$GPGGA,050158.992,2409.0762,N,12040.1430,E,1,05,1.5,112.1,M,,,,0000*0B
$GPGSA,A,3,17,04,28,13,20,,,,,,,,2.5,1.5,2.0*3B
27,176,33*73
$GPGSV,3,2,09,02,26,286,23,23,22,073,17,10,12,217,,20,09,039,27*7B
$GPGSV,3,3,09,12,06,320,22*44
$GPRMC,050158.992,A,2409.0762,N,12040.1430,E,0.00,,050207,,,A*76
$GPGGA,050159.992,2409.0762,N,12040.1430,E,1,05,1.5,112.1,M,,,,0000*0A
$GPGSA,A,3,17,04,28,13,20,,,,,,,,2.5,1.5,2.0*3B
,,,A*77
$GPGGA,050200.992,2409.0762,N,12040.1430,E,1,05,1.5,112.1,M,,,,0000*05
$GPGSA,A,3,17,04,28,13,20,,,,,,,,2.5,1.5,2.0*3B
,A*78
$GPGGA,050201.992,2409.0762,N,12040.1430,E,1,05,1.5,112.1,M,,,,0000*04
$GPGSA,A,3,17,04,28,13,20,,,,,,,,2.5,1.5,2.0*3B
A*79
$GPGGA,050202.992,2409.0762,N,12040.1430,E,1,05,1.5,112.1,M,,,,0000*07
$GPGSA,A,3,17,04,28,13,20,,,,,,,,2.5,1.5,2.0*3B
A*7A
$GPGGA,050203.992,2409.0762,N,12040.1430,E,1,05,1.5,112.1,M,,,,0000*06
$GPGSA,A,3,17,04,28,13,20,,,,,,,,2.5,1.5,2.0*3B
,27,176,34*71
$GPGSV,3,2,09,02,26,286,23,23,22,073,17,10,12,217,,20,09,039,26*7A
$GPGSV,3,3,09,12,06,320,22*44
$GPRMC,050203.992,A,2409.0762,N,12040.1430,E,0.00,,050207,,,A*7B
$GPGGA,050204.992,2409.0762,N,12040.1430,E,1,05,1.5,112.1,M,,,,0000*01
$GPGSA,A,3,17,04,28,13,20,,,,,,,,2.5,1.5,2.0*3B
,A*7C
$GPGGA,050205.992,2409.0762,N,12040.1430,E,1,05,1.5,112.1,M,,,,0000*00
$GPGSA,A,3,17,04,28,13,20,,,,,,,,2.5,1.5,2.0*3B
207,,,A*7D
$GPGGA,050206.992,2409.0762,N,12040.1430,E,1,05,1.5,112.1,M,,,,0000*03
$GPGSA,A,3,17,04,28,13,20,,,,,,,,2.5,1.5,2.0*3B
,,,A*7E
$GPGGA,050207.992,2409.0762,N,12040.1430,E,1,05,1.5,112.1,M,,,,0000*02
$GPGSA,A,3,17,04,28,13,20,,,,,,,,2.5,1.5,2.0*3B
,,,A*7F
$GPGGA,050208.992,2409.0762,N,12040.1430,E,1,05,1.5,112.1,M,,,,0000*0D
$GPGSA,A,3,17,04,28,13,20,,,,,,,,2.5,1.5,2.0*3B
176,34*77
$GPGSV,3,2,09,02,26,286,23,23,22,073,17,10,12,217,,20,09,039,26*7A
$GPGSV,3,3,09,12,06,320,21*47
$GPRMC,050208.992,A,2409.0762,N,12040.1430,E,0.00,,050207,,,A*70
$GPGGA,050209.992,2409.0762,N,12040.1430,E,1,05,1.5,112.1,M,,,,0000*0C
$GPGSA,A,3,17,04,28,13,20,,,,,,,,2.5,1.5,2.0*3B
0,,050207,,,A*71
$GPGGA,050210.992,2409.0762,N,12040.1430,E,1,05,1.5,112.1,M,,,,0000*04
$GPGSA,A,3,17,04,28,13,20,,,,,,,,2.5,1.5,1.9*31
50207,,,A*79
$GPGGA,050211.992,2409.0762,N,12040.1430,E,1,04,2.1,112.1,M,,,,0000*03
$GPGSA,A,3,17,04,28,20,,,,,,,,,2.9,2.1,2.1*33
$GPRMC,050211.992,A,2409.0762,N,12040.1430,E,0.00,,050207,,,A*78
$GPGGA,050212.992,2409.0762,N,12040.1430,E,1,04,2.1,112.1,M,,,,0000*00
$GPGSA,A,3,17,04,28,20,,,,,,,,,2.9,2.1,2.1*33
*7B
$GPGGA,050213.991,2409.0762,N,12040.1430,E,1,04,2.1,112.1,M,,,,0000*02
$GPGSA,A,3,17,04,28,20,,,,,,,,,2.9,2.1,2.1*33
34*76
$GPGSV,3,2,09,02,26,286,23,23,22,073,,10,12,217,,20,09,039,26*7C
$GPGSV,3,3,09,12,06,320,21*47
$GPRMC,050213.991,A,2409.0762,N,12040.1430,E,0.00,,050207,,,A*79
$GPGGA,050214.991,2409.0762,N,12040.1430,E,1,04,2.1,112.1,M,,,,0000*05
$GPGSA,A,3,17,04,28,20,,,,,,,,,2.9,2.1,2.1*33
*7E
$GPGGA,050215.991,2409.0762,N,12040.1430,E,1,04,2.1,112.1,M,,,,0000*04
$GPGSA,A,3,17,04,28,20,,,,,,,,,2.9,2.1,2.1*33
$GPRMC,050215.991,A,2409.0762,N,12040.1430,E,0.00,,050207,,,A*7F
$GPGGA,050216.991,2409.0731,N,12040.1456,E,1,05,1.5,121.5,M,,,,0000*03
$GPGSA,A,3,17,04,28,13,20,,,,,,,,2.5,1.5,1.9*31
,,,A*7A
$GPGGA,050217.991,2409.0731,N,12040.1456,E,1,05,1.5,121.5,M,,,,0000*02
$GPGSA,A,3,17,04,28,13,20,,,,,,,,2.5,1.5,1.9*31
050207,,,A*7B
$GPGGA,050218.991,2409.0731,N,12040.1456,E,1,05,1.5,121.5,M,,,,0000*0D
$GPGSA,A,3,17,04,28,13,20,,,,,,,,2.5,1.5,1.9*31
,176,33*71
$GPGSV,3,2,09,02,26,286,23,23,22,073,,10,12,217,,20,09,039,25*7F
$GPGSV,3,3,09,12,06,320,21*47
$GPRMC,050218.991,A,2409.0731,N,12040.1456,E,0.00,,050207,,,A*74
$GPGGA,050219.991,2409.0731,N,12040.1456,E,1,05,1.5,121.5,M,,,,0000*0C
$GPGSA,A,3,17,04,28,13,20,,,,,,,,2.5,1.5,1.9*31
,A*75
$GPGGA,050220.991,2409.0731,N,12040.1456,E,1,05,1.5,121.5,M,,,,0000*06
$GPGSA,A,3,17,04,28,13,20,,,,,,,,2.5,1.5,1.9*31
*7F
$GPGGA,050221.991,2409.0731,N,12040.1456,E,1,05,1.5,121.5,M,,,,0000*07
$GPGSA,A,3,17,04,28,13,20,,,,,,,,2.5,1.5,1.9*31
,A*7E
$GPGGA,050222.991,2409.0731,N,12040.1456,E,1,05,1.5,121.5,M,,,,0000*04
$GPGSA,A,3,17,04,28,13,20,,,,,,,,2.5,1.5,1.9*31
07,,,A*7D
$GPGGA,050223.991,2409.0731,N,12040.1456,E,1,05,1.5,121.5,M,,,,0000*05
$GPGSA,A,3,17,04,28,13,20,,,,,,,,2.5,1.5,1.9*31
27,176,32*7F
$GPGSV,3,2,09,02,26,286,23,23,22,073,,10,12,217,,20,09,039,25*7F
$GPGSV,3,3,09,12,06,320,23*45
$GPRMC,050223.991,A,2409.0731,N,12040.1456,E,0.00,,050207,,,A*7C
$GPGGA,050224.991,2409.0731,N,12040.1456,E,1,05,1.5,121.5,M,,,,0000*02
$GPGSA,A,3,17,04,28,13,20,,,,,,,,2.5,1.5,1.9*31
0207,,,A*7B
$GPGGA,050225.991,2409.0731,N,12040.1456,E,1,05,1.5,121.5,M,,,,0000*03
$GPGSA,A,3,17,04,28,13,20,,,,,,,,2.5,1.5,1.9*31
07,,,A*7A
$GPGGA,050226.991,2409.0731,N,12040.1456,E,1,05,1.5,121.5,M,,,,0000*00
$GPGSA,A,3,17,04,28,13,20,,,,,,,,2.5,1.5,1.9*31
0207,,,A*79
$GPGGA,050227.991,2409.0731,N,12040.1456,E,1,05,1.5,121.5,M,,,,0000*01
$GPGSA,A,3,17,04,28,13,20,,,,,,,,2.5,1.5,1.9*31
207,,,A*78
$GPGGA,050228.991,2409.0731,N,12040.1456,E,1,05,1.5,121.5,M,,,,0000*0E
$GPGSA,A,3,17,04,28,13,20,,,,,,,,2.5,1.5,1.9*31
28,27,176,30*73
$GPGSV,3,2,09,02,26,286,23,23,22,073,,10,12,217,,20,09,039,25*7F
$GPGSV,3,3,09,12,06,320,24*42
$GPRMC,050228.991,A,2409.0731,N,12040.1456,E,0.00,,050207,,,A*77
$GPGGA,050229.990,2409.0731,N,12040.1456,E,1,05,1.5,121.5,M,,,,0000*0E
$GPGSA,A,3,17,04,28,13,20,,,,,,,,2.5,1.5,1.9*31
07,,,A*77
$GPGGA,050230.990,2409.0731,N,12040.1456,E,1,05,1.5,121.5,M,,,,0000*06
$GPGSA,A,3,17,04,28,13,20,,,,,,,,2.5,1.5,1.9*31
,,A*7F
$GPGGA,050231.990,2409.0731,N,12040.1456,E,1,05,1.5,121.5,M,,,,0000*07
$GPGSA,A,3,17,04,28,13,20,,,,,,,,2.5,1.5,1.9*31
7,,,A*7E
$GPGGA,050232.990,2409.0731,N,12040.1456,E,1,05,1.5,121.5,M,,,,0000*04
$GPGSA,A,3,17,04,28,13,20,,,,,,,,2.5,1.5,1.9*31
,,,A*7D
$GPGGA,050233.990,2409.0731,N,12040.1456,E,1,05,1.5,121.5,M,,,,0000*05
$GPGSA,A,3,17,04,28,13,20,,,,,,,,2.5,1.5,1.9*31
27,176,29*76
$GPGSV,3,2,09,02,26,286,23,23,22,073,,10,12,217,,20,09,039,24*7E
$GPGSV,3,3,09,12,06,320,24*42
$GPRMC,050233.990,A,2409.0731,N,12040.1456,E,0.00,,050207,,,A*7C
$GPGGA,050234.990,2409.0731,N,12040.1456,E,1,05,1.5,121.5,M,,,,0000*02
$GPGSA,A,3,17,04,28,13,20,,,,,,,,2.5,1.5,1.9*31
7,,,A*7B
$GPGGA,050235.990,2409.0731,N,12040.1456,E,1,05,1.5,121.5,M,,,,0000*03
$GPGSA,A,3,17,04,28,13,20,,,,,,,,2.5,1.5,1.9*31
,A*7A
$GPGGA,050236.990,2409.0731,N,12040.1456,E,1,05,1.5,121.5,M,,,,0000*00
$GPGSA,A,3,17,04,28,13,20,,,,,,,,2.5,1.5,1.9*31
,,A*79
$GPGGA,050237.990,2409.0731,N,12040.1456,E,1,05,1.5,121.5,M,,,,0000*01
$GPGSA,A,3,17,04,28,13,20,,,,,,,,2.5,1.5,1.9*31
07,,,A*78
$GPGGA,050238.990,2409.0731,N,12040.1456,E,1,05,1.5,121.5,M,,,,0000*0E
$GPGSA,A,3,17,04,28,13,20,,,,,,,,2.5,1.5,1.9*31
1,28,27,176,30*70
$GPGSV,3,2,09,02,26,286,23,23,22,073,,10,12,217,,20,09,039,25*7F
$GPGSV,3,3,09,12,06,320,23*45
$GPRMC,050238.990,A,2409.0731,N,12040.1456,E,0.00,,050207,,,A*77
$GPGGA,050239.990,2409.0731,N,12040.1456,E,1,05,1.5,121.5,M,,,,0000*0F
$GPGSA,A,3,17,04,28,13,20,,,,,,,,2.5,1.5,1.9*31
50207,,,A*76
$GPGGA,050240.990,2409.0731,N,12040.1456,E,1,05,1.5,121.5,M,,,,0000*01
$GPGSA,A,3,17,04,28,13,20,,,,,,,,2.5,1.5,1.9*31
050207,,,A*78
$GPGGA,050241.990,2409.0731,N,12040.1456,E,1,05,1.5,121.5,M,,,,0000*00
$GPGSA,A,3,17,04,28,13,20,,,,,,,,2.5,1.5,1.9*31
207,,,A*79
$GPGGA,050242.990,2409.0731,N,12040.1456,E,1,05,1.5,121.5,M,,,,0000*03
$GPGSA,A,3,17,04,28,13,20,,,,,,,,2.5,1.5,1.9*31
7,,,A*7A
$GPGGA,050243.990,2409.0731,N,12040.1456,E,1,05,1.5,121.5,M,,,,0000*02
$GPGSA,A,3,17,04,28,13,20,,,,,,,,2.5,1.5,1.9*31
7,176,30*7F
$GPGSV,3,2,09,02,26,286,23,23,22,073,,10,12,217,,20,09,039,26*7C
$GPGSV,3,3,09,12,06,320,23*45
$GPRMC,050243.990,A,2409.0731,N,12040.1456,E,0.00,,050207,,,A*7B
$GPGGA,050244.990,2409.0731,N,12040.1456,E,1,05,1.5,121.5,M,,,,0000*05
$GPGSA,A,3,17,04,28,13,20,,,,,,,,2.5,1.5,1.9*31
,,,A*7C
$GPGGA,050245.990,2409.0731,N,12040.1456,E,1,05,1.5,121.5,M,,,,0000*04
$GPGSA,A,3,17,04,28,13,20,,,,,,,,2.5,1.5,1.9*31
7,,,A*7D
$GPGGA,050246.989,2409.0731,N,12040.1456,E,1,05,1.5,121.5,M,,,,0000*0F
$GPGSA,A,3,17,04,28,13,20,,,,,,,,2.5,1.5,1.9*31
7,,,A*76
$GPGGA,050247.989,2409.0731,N,12040.1456,E,1,05,1.5,121.5,M,,,,0000*0E
$GPGSA,A,3,17,04,28,13,20,,,,,,,,2.5,1.5,1.9*31
50207,,,A*77
$GPGGA,050248.989,2409.0731,N,12040.1456,E,1,05,1.5,121.5,M,,,,0000*01
$GPGSA,A,3,17,04,28,13,20,,,,,,,,2.5,1.5,1.9*31
26,176,30*7E
$GPGSV,3,2,09,02,26,286,23,23,22,072,,10,12,217,,20,09,039,25*7E
$GPGSV,3,3,09,12,07,320,22*45
$GPRMC,050248.989,A,2409.0731,N,12040.1456,E,0.00,,050207,,,A*78
$GPGGA,050249.989,2409.0731,N,12040.1456,E,1,05,1.5,121.5,M,,,,0000*00
$GPGSA,A,3,17,04,28,13,20,,,,,,,,2.5,1.5,1.9*31
A*79
$GPGGA,050250.989,2409.0731,N,12040.1456,E,1,04,2.1,121.5,M,,,,0000*0E
$GPGSA,A,3,17,04,28,13,,,,,,,,,4.8,2.1,4.3*30
,,,A*71
$GPGGA,050251.989,2409.0731,N,12040.1456,E,1,05,1.5,121.5,M,,,,0000*09
$GPGSA,A,3,17,04,28,13,20,,,,,,,,2.5,1.5,1.9*31
50207,,,A*70
$GPGGA,050252.989,2409.0731,N,12040.1456,E,1,05,1.5,121.5,M,,,,0000*0A
$GPGSA,A,3,17,04,28,13,20,,,,,,,,2.5,1.5,1.9*31
050207,,,A*73
$GPGGA,050253.989,2409.0731,N,12040.1456,E,1,05,1.5,121.5,M,,,,0000*0B
$GPGSA,A,3,17,04,28,13,20,,,,,,,,2.5,1.5,1.9*31
8,41,28,26,176,26*7A
$GPGSV,3,2,09,02,26,286,23,23,22,072,22,10,12,217,,20,09,039,24*7F
$GPGSV,3,3,09,12,07,320,23*44
$GPRMC,050253.989,A,2409.0731,N,12040.1456,E,0.00,,050207,,,A*72
$GPGGA,050254.989,2409.0731,N,12040.1456,E,1,05,1.5,121.5,M,,,,0000*0C
$GPGSA,A,3,17,04,28,13,20,,,,,,,,2.5,1.5,1.9*31
0,,050207,,,A*75
$GPGGA,050255.989,2409.0731,N,12040.1456,E,1,05,1.5,121.5,M,,,,0000*0D
$GPGSA,A,3,17,04,28,13,20,,,,,,,,2.5,1.5,1.9*31
,050207,,,A*74
$GPGGA,050256.989,2409.0731,N,12040.1456,E,1,05,1.5,121.5,M,,,,0000*0E
$GPGSA,A,3,17,04,28,13,20,,,,,,,,2.5,1.5,1.9*31
E,0.00,,050207,,,A*77
$GPGGA,050257.989,2409.0731,N,12040.1456,E,1,05,1.5,121.5,M,,,,0000*0F
$GPGSA,A,3,17,04,28,13,20,,,,,,,,2.5,1.5,1.9*31
,,050207,,,A*76
$GPGGA,050258.989,2409.0731,N,12040.1456,E,1,05,1.5,121.5,M,,,,0000*00
$GPGSA,A,3,17,04,28,13,20,,,,,,,,2.5,1.5,1.9*31
1,28,26,176,21*73
$GPGSV,3,2,09,02,26,286,23,23,22,072,18,10,12,217,,20,09,039,24*76
$GPGSV,3,3,09,12,07,320,22*45
$GPRMC,050258.989,A,2409.0731,N,12040.1456,E,0.00,,050207,,,A*79
$GPGGA,050259.989,2409.0731,N,12040.1456,E,1,05,1.5,121.5,M,,,,0000*01
$GPGSA,A,3,17,04,28,13,20,,,,,,,,2.5,1.5,1.9*31
207,,,A*78
$GPGGA,050300.989,2409.0731,N,12040.1456,E,1,05,1.5,121.5,M,,,,0000*0C
$GPGSA,A,3,17,04,28,13,20,,,,,,,,2.5,1.5,1.9*31
0207,,,A*75
$GPGGA,050301.989,2409.0731,N,12040.1456,E,1,05,1.5,121.5,M,,,,0000*0D
$GPGSA,A,3,17,04,28,13,20,,,,,,,,2.5,1.5,1.9*31
07,,,A*74
$GPGGA,050302.988,2409.0731,N,12040.1456,E,1,05,1.5,121.5,M,,,,0000*0F
$GPGSA,A,3,17,04,28,13,20,,,,,,,,2.5,1.5,1.9*31
,,,A*76
$GPGGA,050303.988,2409.0731,N,12040.1456,E,1,05,1.5,121.5,M,,,,0000*0E
$GPGSA,A,3,17,04,28,13,20,,,,,,,,2.5,1.5,1.9*31
6,176,23*71
$GPGSV,3,2,09,02,26,286,23,23,22,072,17,10,12,217,,20,09,039,16*78
$GPGSV,3,3,09,12,07,320,20*47
$GPRMC,050303.988,A,2409.0731,N,12040.1456,E,0.00,,050207,,,A*77
$GPGGA,050304.988,2409.0731,N,12040.1456,E,1,05,1.5,121.5,M,,,,0000*09
$GPGSA,A,3,17,04,28,13,20,,,,,,,,2.5,1.5,1.9*31
,,,A*70
$GPGGA,050305.988,2409.0731,N,12040.1456,E,1,05,1.5,121.5,M,,,,0000*08
$GPGSA,A,3,17,04,28,13,20,,,,,,,,2.5,1.5,1.9*31
,,,A*71
$GPGGA,050306.988,2409.0731,N,12040.1456,E,1,05,1.5,121.5,M,,,,0000*0B
$GPGSA,A,3,17,04,28,13,20,,,,,,,,2.5,1.5,1.9*31
,,,A*72
$GPGGA,050307.988,2409.0731,N,12040.1456,E,1,05,1.5,121.5,M,,,,0000*0A
$GPGSA,A,3,17,04,28,13,20,,,,,,,,2.5,1.5,1.9*31
3
$GPGGA,050308.988,2409.0731,N,12040.1456,E,1,05,1.5,121.5,M,,,,0000*05
$GPGSA,A,3,17,04,28,13,20,,,,,,,,2.5,1.5,1.9*31
6,176,29*73
$GPGSV,3,2,09,02,26,286,23,23,22,072,17,10,12,217,,20,09,039,23*7E
$GPGSV,3,3,09,12,07,320,24*43
$GPRMC,050308.988,A,2409.0731,N,12040.1456,E,0.00,,050207,,,A*7C
$GPGGA,050309.988,2409.0731,N,12040.1456,E,1,03,33.0,121.5,M,,,,0000*36
$GPGSA,A,2,17,28,13,,,,,,,,,,50.0,33.0,50.0*0D
7D
$GPGGA,050310.988,2409.0731,N,12040.1456,E,1,04,2.2,121.5,M,,,,0000*09
$GPGSA,A,3,17,28,13,20,,,,,,,,,3.0,2.2,1.9*35
75
$GPGGA,050311.988,2409.0731,N,12040.1456,E,1,05,1.5,121.5,M,,,,0000*0D
$GPGSA,A,3,17,04,28,13,20,,,,,,,,2.5,1.5,1.9*31
7,,,A*74
$GPGGA,050312.988,2409.0731,N,12040.1456,E,1,05,1.5,121.5,M,,,,0000*0E
$GPGSA,A,3,17,04,28,13,20,,,,,,,,2.5,1.5,1.9*31
207,,,A*77
$GPGGA,050313.988,2409.0731,N,12040.1456,E,1,05,1.5,121.5,M,,,,0000*0F
$GPGSA,A,3,17,04,28,13,20,,,,,,,,2.5,1.5,1.9*31
42,28,26,176,30*7A
$GPGSV,3,2,09,02,26,286,23,23,22,072,17,10,12,217,,20,09,039,25*78
$GPGSV,3,3,09,12,07,320,26*41
$GPRMC,050313.988,A,2409.0731,N,12040.1456,E,0.00,,050207,,,A*76
$GPGGA,050314.988,2409.0731,N,12040.1456,E,1,05,1.5,121.5,M,,,,0000*08
$GPGSA,A,3,17,04,28,13,20,,,,,,,,2.5,1.5,1.9*31
050207,,,A*71
$GPGGA,050315.988,2409.0731,N,12040.1456,E,1,05,1.5,121.5,M,,,,0000*09
$GPGSA,A,3,17,04,28,13,20,,,,,,,,2.5,1.5,1.9*31
0207,,,A*70
$GPGGA,050316.988,2409.0731,N,12040.1456,E,1,05,1.5,121.5,M,,,,0000*0A
$GPGSA,A,3,17,04,28,13,20,,,,,,,,2.4,1.5,1.9*30
0207,,,A*73
$GPGGA,050317.988,2409.0731,N,12040.1456,E,1,05,1.5,121.5,M,,,,0000*0B
$GPGSA,A,3,17,04,28,13,20,,,,,,,,2.4,1.5,1.9*30
E,0.00,,050207,,,A*72
$GPGGA,050318.988,2409.0731,N,12040.1456,E,1,05,1.5,121.5,M,,,,0000*04
$GPGSA,A,3,17,04,28,13,20,,,,,,,,2.4,1.5,1.9*30
3,28,26,176,31*71
$GPGSV,3,2,09,02,26,286,23,23,22,072,,10,13,218,,20,09,039,22*77
$GPGSV,3,3,09,12,07,319,25*48
$GPRMC,050318.988,A,2409.0731,N,12040.1456,E,0.00,,050207,,,A*7D
$GPGGA,050319.987,2409.0731,N,12040.1456,E,1,05,1.5,121.5,M,,,,0000*0A
$GPGSA,A,3,17,04,28,13,20,,,,,,,,2.4,1.5,1.9*30
50207,,,A*73
$GPGGA,050320.987,2409.0731,N,12040.1456,E,1,05,1.5,121.5,M,,,,0000*00
$GPGSA,A,3,17,04,28,13,20,,,,,,,,2.4,1.5,1.9*30
,050207,,,A*79
$GPGGA,050321.987,2409.0731,N,12040.1456,E,1,05,1.5,121.5,M,,,,0000*01
$GPGSA,A,3,17,04,28,13,20,,,,,,,,2.4,1.5,1.9*30
,A*78
$GPGGA,050322.987,2409.0731,N,12040.1456,E,1,05,1.5,121.5,M,,,,0000*02
$GPGSA,A,3,17,04,28,13,20,,,,,,,,2.4,1.5,1.9*30
,,A*7B
$GPGGA,050323.987,2409.0731,N,12040.1456,E,1,05,1.5,121.5,M,,,,0000*03
$GPGSA,A,3,17,04,28,13,20,,,,,,,,2.4,1.5,1.9*30
26,176,29*7A
$GPGSV,3,2,09,02,26,286,23,23,22,072,,10,13,218,,20,09,039,23*76
$GPGSV,3,3,09,12,07,319,25*48
$GPRMC,050323.987,A,2409.0731,N,12040.1456,E,0.00,,050207,,,A*7A
$GPGGA,050324.987,2409.0731,N,12040.1456,E,1,05,1.5,121.5,M,,,,0000*04
$GPGSA,A,3,17,04,28,13,20,,,,,,,,2.4,1.5,1.9*30
,,,A*7D
$GPGGA,050325.987,2409.0731,N,12040.1456,E,1,05,1.5,121.5,M,,,,0000*05
$GPGSA,A,3,17,04,28,13,20,,,,,,,,2.4,1.5,1.9*30
7,,,A*7C
$GPGGA,050326.987,2409.0731,N,12040.1456,E,1,05,1.5,121.5,M,,,,0000*06
$GPGSA,A,3,17,04,28,13,20,,,,,,,,2.4,1.5,1.9*30
,A*7F
$GPGGA,050327.987,2409.0731,N,12040.1456,E,1,05,1.5,121.5,M,,,,0000*07
$GPGSA,A,3,17,04,28,13,20,,,,,,,,2.4,1.5,1.9*30
,,,A*7E
$GPGGA,050328.987,2409.0731,N,12040.1456,E,1,05,1.5,121.5,M,,,,0000*08
$GPGSA,A,3,17,04,28,13,20,,,,,,,,2.4,1.5,1.9*30
176,26*77
$GPGSV,3,2,09,02,26,286,23,23,22,072,,10,13,218,,20,09,039,21*74
$GPGSV,3,3,09,12,07,319,25*48
$GPRMC,050328.987,A,2409.0731,N,12040.1456,E,0.00,,050207,,,A*71
$GPGGA,050329.987,2409.0731,N,12040.1456,E,1,05,1.5,121.5,M,,,,0000*09
$GPGSA,A,3,17,04,28,13,20,,,,,,,,2.4,1.5,1.9*30
,,,A*70
$GPGGA,050330.987,2409.0731,N,12040.1456,E,1,05,1.5,121.5,M,,,,0000*01
$GPGSA,A,3,17,04,28,13,20,,,,,,,,2.4,1.5,1.9*30
207,,,A*78
$GPGGA,050331.987,2409.0731,N,12040.1456,E,1,05,1.5,121.5,M,,,,0000*00
$GPGSA,A,3,17,04,28,13,20,,,,,,,,2.4,1.5,1.9*30
07,,,A*79
$GPGGA,050332.987,2409.0731,N,12040.1456,E,1,05,1.5,121.5,M,,,,0000*03
$GPGSA,A,3,17,04,28,13,20,,,,,,,,2.4,1.5,1.9*30
,,,A*7A
$GPGGA,050333.987,2409.0731,N,12040.1456,E,1,05,1.5,121.5,M,,,,0000*02
$GPGSA,A,3,17,04,28,13,20,,,,,,,,2.4,1.5,1.9*30
,26,176,28*74
$GPGSV,3,2,09,02,26,286,23,23,22,072,,10,13,218,,20,09,039,23*76
$GPGSV,3,3,09,12,07,319,26*4B
$GPRMC,050333.987,A,2409.0731,N,12040.1456,E,0.00,,050207,,,A*7B
$GPGGA,050334.987,2409.0731,N,12040.1456,E,1,05,1.5,121.5,M,,,,0000*05
$GPGSA,A,3,17,04,28,13,20,,,,,,,,2.4,1.5,1.9*30
207,,,A*7C
$GPGGA,050335.987,2409.0731,N,12040.1456,E,1,05,1.5,121.5,M,,,,0000*04
$GPGSA,A,3,17,04,28,13,20,,,,,,,,2.4,1.5,1.9*30
,,,A*7D
$GPGGA,050336.986,2409.0731,N,12040.1456,E,1,05,1.5,121.5,M,,,,0000*06
$GPGSA,A,3,17,04,28,13,20,,,,,,,,2.4,1.5,1.9*30
,,A*7F
$GPGGA,050337.986,2409.0731,N,12040.1456,E,1,05,1.5,121.5,M,,,,0000*07
$GPGSA,A,3,17,04,28,13,20,,,,,,,,2.4,1.5,1.9*30
,,A*7E
$GPGGA,050338.986,2409.0731,N,12040.1456,E,1,05,1.5,121.5,M,,,,0000*08
$GPGSA,A,3,17,04,28,13,20,,,,,,,,2.4,1.5,1.9*30
,176,28*75
$GPGSV,3,2,09,02,26,286,23,23,22,072,,10,13,218,,20,09,039,22*77
$GPGSV,3,3,09,12,07,319,26*4B
$GPRMC,050338.986,A,2409.0731,N,12040.1456,E,0.00,,050207,,,A*71
$GPGGA,050339.986,2409.0731,N,12040.1456,E,1,05,1.5,121.5,M,,,,0000*09
$GPGSA,A,3,17,04,28,13,20,,,,,,,,2.4,1.5,1.9*30
,,,A*70
$GPGGA,050340.986,2409.0731,N,12040.1456,E,1,05,1.5,121.5,M,,,,0000*07
$GPGSA,A,3,17,04,28,13,20,,,,,,,,2.4,1.5,1.9*30
,,,A*7E
$GPGGA,050341.986,2409.0731,N,12040.1456,E,1,05,1.5,121.5,M,,,,0000*06
$GPGSA,A,3,17,04,28,13,20,,,,,,,,2.4,1.5,1.9*30
207,,,A*7F
$GPGGA,050342.986,2409.0731,N,12040.1456,E,1,05,1.5,121.5,M,,,,0000*05
$GPGSA,A,3,17,04,28,13,20,,,,,,,,2.4,1.5,1.9*30
7,,,A*7C
$GPGGA,050343.986,2409.0731,N,12040.1456,E,1,05,1.5,121.5,M,,,,0000*04
$GPGSA,A,3,17,04,28,13,20,,,,,,,,2.4,1.5,1.9*30
,26,176,30*7B
$GPGSV,3,2,09,02,26,286,23,23,22,072,,10,13,218,,20,09,039,27*72
$GPGSV,3,3,09,12,07,319,24*49
$GPRMC,050343.986,A,2409.0731,N,12040.1456,E,0.00,,050207,,,A*7D
$GPGGA,050344.986,2409.0731,N,12040.1456,E,1,05,1.5,121.5,M,,,,0000*03
$GPGSA,A,3,17,04,28,13,20,,,,,,,,2.4,1.5,1.9*30
,,A*7A
$GPGGA,050345.986,2409.0731,N,12040.1456,E,1,05,1.5,121.5,M,,,,0000*02
$GPGSA,A,3,17,04,28,13,20,,,,,,,,2.4,1.5,1.9*30
,,A*7B
$GPGGA,050346.986,2409.0731,N,12040.1456,E,1,05,1.5,121.5,M,,,,0000*01
$GPGSA,A,3,17,04,28,13,20,,,,,,,,2.4,1.5,1.9*30
,,,A*78
$GPGGA,050347.986,2409.0731,N,12040.1456,E,1,05,1.5,121.5,M,,,,0000*00
$GPGSA,A,3,17,04,28,13,20,,,,,,,,2.4,1.5,1.9*30
,A*79
$GPGGA,050348.986,2409.0731,N,12040.1456,E,1,05,1.5,121.5,M,,,,0000*0F
$GPGSA,A,3,17,04,28,13,20,,,,,,,,2.4,1.5,1.9*30
7,23*71
$GPGSV,3,2,09,28,26,176,33,23,22,072,,10,13,218,,20,08,039,25*74
$GPGSV,3,3,09,12,07,319,23*4E
$GPRMC,050348.986,A,2409.0731,N,12040.1456,E,0.00,,050207,,,A*76
$GPGGA,050349.986,2409.0731,N,12040.1456,E,1,05,1.5,121.5,M,,,,0000*0E
$GPGSA,A,3,17,04,28,13,20,,,,,,,,2.4,1.5,1.9*30
7
$GPGGA,050350.986,2409.0731,N,12040.1456,E,1,05,1.5,121.5,M,,,,0000*06
$GPGSA,A,3,17,04,28,13,20,,,,,,,,2.4,1.5,1.9*30
7F
$GPGGA,050351.986,2409.0731,N,12040.1456,E,1,05,1.5,121.5,M,,,,0000*07
$GPGSA,A,3,17,04,28,13,20,,,,,,,,2.4,1.5,1.9*30
E
$GPGGA,050352.985,2409.0731,N,12040.1456,E,1,05,1.5,121.5,M,,,,0000*07
$GPGSA,A,3,17,04,28,13,20,,,,,,,,2.4,1.5,1.9*30
7E
$GPGGA,050353.985,2409.0731,N,12040.1456,E,1,05,1.5,121.5,M,,,,0000*06
$GPGSA,A,3,17,04,28,13,20,,,,,,,,2.4,1.5,1.9*30
,23*73
$GPGSV,3,2,09,28,26,176,34,23,22,072,,10,13,218,,20,08,039,26*70
$GPGSV,3,3,09,12,07,319,26*4B
$GPRMC,050353.985,A,2409.0731,N,12040.1456,E,0.00,,050207,,,A*7F
$GPGGA,050354.985,2409.0731,N,12040.1456,E,1,05,1.5,121.5,M,,,,0000*01
$GPGSA,A,3,17,04,28,13,20,,,,,,,,2.4,1.5,1.9*30
$GPRMC,050354.985,A,2409.0731,N,12040.1456,E,0.00,,050207,,,A*78
$GPGGA,050355.985,2409.0731,N,12040.1456,E,1,05,1.5,121.5,M,,,,0000*00
$GPGSA,A,3,17,04,28,13,20,,,,,,,,2.4,1.5,1.9*30
*79
$GPGGA,050356.985,2409.0731,N,12040.1456,E,1,05,1.5,121.5,M,,,,0000*03
$GPGSA,A,3,17,04,28,13,20,,,,,,,,2.4,1.5,1.9*30
7A
$GPGGA,050357.985,2409.0731,N,12040.1456,E,1,04,2.2,121.5,M,,,,0000*07
$GPGSA,A,3,17,28,13,20,,,,,,,,,2.9,2.2,1.9*3D
*7B
$GPGGA,050358.985,2409.0731,N,12040.1456,E,1,05,1.5,121.5,M,,,,0000*0D
$GPGSA,A,3,17,04,28,13,20,,,,,,,,2.4,1.5,1.9*30
,26,287,23*71
$GPGSV,3,2,09,28,26,176,33,23,22,072,20,10,13,218,,20,08,039,24*77
$GPGSV,3,3,09,12,07,319,27*4A
$GPRMC,050358.985,A,2409.0731,N,12040.1456,E,0.00,,050207,,,A*74
$GPGGA,050359.985,2409.0731,N,12040.1456,E,1,04,2.2,121.5,M,,,,0000*09
$GPGSA,A,3,17,28,13,20,,,,,,,,,2.9,2.2,1.9*3D
A*75
$GPGGA,050400.985,2409.0731,N,12040.1456,E,1,05,1.5,121.5,M,,,,0000*07
$GPGSA,A,3,17,04,28,13,20,,,,,,,,2.4,1.5,1.9*30
0207,,,A*7E
$GPGGA,050401.985,2409.0731,N,12040.1456,E,1,05,1.5,121.5,M,,,,0000*06
$GPGSA,A,3,17,04,28,13,20,,,,,,,,2.4,1.5,1.9*30
,,,A*7F
$GPGGA,050402.985,2409.0731,N,12040.1456,E,1,05,1.5,121.5,M,,,,0000*05
$GPGSA,A,3,17,04,28,13,20,,,,,,,,2.4,1.5,1.9*30
207,,,A*7C
$GPGGA,050403.985,2409.0731,N,12040.1456,E,1,05,1.5,121.5,M,,,,0000*04
$GPGSA,A,3,17,04,28,13,20,,,,,,,,2.4,1.5,1.9*30
26,287,23*78
$GPGSV,3,2,09,28,26,176,30,23,22,072,19,10,13,218,,20,08,039,27*7D
$GPGSV,3,3,09,12,07,319,24*49
$GPRMC,050403.985,A,2409.0731,N,12040.1456,E,0.00,,050207,,,A*7D
$GPGGA,050404.985,2409.0731,N,12040.1456,E,1,04,2.1,121.5,M,,,,0000*05
$GPGSA,A,3,17,04,28,20,,,,,,,,,2.9,2.1,2.0*32
A*7A
$GPGGA,050405.985,2409.0731,N,12040.1456,E,1,05,1.5,121.5,M,,,,0000*02
$GPGSA,A,3,17,04,28,13,20,,,,,,,,2.4,1.5,1.9*30
07,,,A*7B
$GPGGA,050406.985,2409.0731,N,12040.1456,E,1,05,1.5,121.5,M,,,,0000*01
$GPGSA,A,3,17,04,28,13,20,,,,,,,,2.4,1.5,1.9*30
7,,,A*78
$GPGGA,050407.985,2409.0731,N,12040.1456,E,1,05,1.5,121.5,M,,,,0000*00
$GPGSA,A,3,17,04,28,13,20,,,,,,,,2.4,1.5,1.9*30
7,,,A*79
$GPGGA,050408.985,2409.0731,N,12040.1456,E,1,04,1.7,121.5,M,,,,0000*0C
$GPGSA,A,3,04,28,13,20,,,,,,,,,3.5,1.7,3.0*3F
87,23*7A
$GPGSV,3,2,09,28,26,176,29,23,22,072,23,10,13,218,,20,08,039,26*7D
$GPGSV,3,3,09,12,07,319,20*4D
$GPRMC,050408.985,A,2409.0731,N,12040.1456,E,0.00,,050207,,,A*76
$GPGGA,050409.984,2409.0731,N,12040.1456,E,1,05,1.5,121.5,M,,,,0000*0F
$GPGSA,A,3,17,04,28,13,20,,,,,,,,2.4,1.5,1.9*30
,050207,,,A*76
$GPGGA,050410.984,2409.0731,N,12040.1456,E,1,05,1.5,121.5,M,,,,0000*07
$GPGSA,A,3,17,04,28,13,20,,,,,,,,2.4,1.5,1.9*30
0207,,,A*7E
$GPGGA,050411.984,2409.0731,N,12040.1456,E,1,04,2.1,121.5,M,,,,0000*00
$GPGSA,A,3,17,04,28,13,,,,,,,,,4.7,2.1,4.3*3F
,,A*7F
$GPGGA,050412.984,2409.0731,N,12040.1456,E,1,04,4.5,121.5,M,,,,0000*01
$GPGSA,A,3,17,04,28,12,,,,,,,,,5.9,4.5,3.9*3E
C
$GPGGA,050413.984,2409.0731,N,12040.1456,E,1,04,2.1,121.5,M,,,,0000*02
$GPGSA,A,3,17,04,28,20,,,,,,,,,2.9,2.1,2.0*32
,287,23*7C
$GPGSV,3,2,09,28,26,176,30,23,22,072,23,10,13,218,,20,08,039,27*74
$GPGSV,3,3,09,12,07,319,22*4F
$GPRMC,050413.984,A,2409.0731,N,12040.1456,E,0.00,,050207,,,A*7D
$GPGGA,050414.984,2409.0731,N,12040.1456,E,1,04,2.1,121.5,M,,,,0000*05
$GPGSA,A,3,17,04,28,20,,,,,,,,,2.9,2.1,2.0*32
,,,A*7A
$GPGGA,050415.984,2409.0731,N,12040.1456,E,1,04,2.1,121.5,M,,,,0000*04
$GPGSA,A,3,17,04,28,20,,,,,,,,,2.9,2.1,2.0*32
,A*7B
$GPGGA,050416.984,2409.0731,N,12040.1456,E,1,04,2.1,121.5,M,,,,0000*07
$GPGSA,A,3,17,04,28,20,,,,,,,,,2.9,2.1,2.0*32
,,A*78
$GPGGA,050417.984,2409.0731,N,12040.1456,E,1,05,1.5,121.5,M,,,,0000*00
$GPGSA,A,3,17,04,28,13,20,,,,,,,,2.4,1.5,1.9*30
,,050207,,,A*79
$GPGGA,050418.984,2409.0731,N,12040.1456,E,1,05,1.5,121.5,M,,,,0000*0F
$GPGSA,A,3,17,04,28,13,20,,,,,,,,2.4,1.5,1.9*30
6,287,23*79
$GPGSV,3,2,09,28,26,176,34,23,22,072,16,10,13,218,,20,08,039,27*76
$GPGSV,3,3,09,12,07,319,24*49
$GPRMC,050418.984,A,2409.0731,N,12040.1456,E,0.00,,050207,,,A*76
$GPGGA,050419.984,2409.0731,N,12040.1456,E,1,04,3.9,121.5,M,,,,0000*01
$GPGSA,A,3,17,04,13,20,,,,,,,,,5.5,3.9,3.8*31
$GPRMC,050419.984,A,2409.0731,N,12040.1456,E,0.00,,050207,,,A*77
$GPGGA,050420.984,2409.0731,N,12040.1456,E,1,05,1.5,121.5,M,,,,0000*04
$GPGSA,A,3,17,04,28,13,20,,,,,,,,2.4,1.5,1.9*30
,,A*7D
$GPGGA,050421.984,2409.0731,N,12040.1456,E,1,05,1.5,121.5,M,,,,0000*05
$GPGSA,A,3,17,04,28,13,20,,,,,,,,2.4,1.5,1.9*30
,A*7C
$GPGGA,050422.984,2409.0731,N,12040.1456,E,1,05,1.5,121.5,M,,,,0000*06
$GPGSA,A,3,17,04,28,13,20,,,,,,,,2.4,1.5,1.9*30
,A*7F
$GPGGA,050423.984,2409.0731,N,12040.1456,E,1,05,1.5,121.5,M,,,,0000*07
$GPGSA,A,3,17,04,28,13,20,,,,,,,,2.4,1.5,1.9*30
,287,23*74
$GPGSV,3,2,09,28,26,176,37,23,22,072,16,10,13,218,,20,08,039,27*75
$GPGSV,3,3,09,12,07,319,27*4A
$GPRMC,050423.984,A,2409.0731,N,12040.1456,E,0.00,,050207,,,A*7E
$GPGGA,050424.984,2409.0731,N,12040.1456,E,1,05,1.5,121.5,M,,,,0000*00
$GPGSA,A,3,17,04,28,13,20,,,,,,,,2.4,1.5,1.9*30
79
$GPGGA,050425.984,2409.0731,N,12040.1456,E,1,04,2.2,121.5,M,,,,0000*04
$GPGSA,A,3,17,28,13,20,,,,,,,,,2.9,2.2,1.9*3D
8
$GPGGA,050426.983,2409.0731,N,12040.1456,E,1,04,2.2,121.5,M,,,,0000*00
$GPGSA,A,3,17,28,13,20,,,,,,,,,2.9,2.2,1.9*3D

$GPGGA,050427.983,2409.0731,N,12040.1456,E,1,05,1.5,121.5,M,,,,0000*04
$GPGSA,A,3,17,04,28,13,20,,,,,,,,2.4,1.5,1.9*30
,,A*7D
$GPGGA,050428.983,2409.0731,N,12040.1456,E,1,05,1.5,121.5,M,,,,0000*0B
$GPGSA,A,3,17,04,28,13,20,,,,,,,,2.4,1.5,1.9*30
287,23*74
$GPGSV,3,2,09,28,26,176,39,23,22,072,22,10,13,218,,20,08,039,27*7C
$GPGSV,3,3,09,12,07,319,29*44
$GPRMC,050428.983,A,2409.0731,N,12040.1456,E,0.00,,050207,,,A*72
$GPGGA,050429.983,2409.0731,N,12040.1456,E,1,04,2.2,121.5,M,,,,0000*0F
$GPGSA,A,3,17,28,13,20,,,,,,,,,2.9,2.2,1.9*3D
,,A*73
$GPGGA,050430.983,2409.0731,N,12040.1456,E,1,04,2.2,121.5,M,,,,0000*07
$GPGSA,A,3,17,28,13,20,,,,,,,,,2.9,2.2,1.9*3D
207,,,A*7B
$GPGGA,050431.983,2409.0731,N,12040.1456,E,1,04,2.2,121.5,M,,,,0000*06
$GPGSA,A,3,17,28,13,20,,,,,,,,,2.9,2.2,1.9*3D
7,,,A*7A
$GPGGA,050432.983,2409.0731,N,12040.1456,E,1,04,2.2,121.5,M,,,,0000*05
$GPGSA,A,3,17,28,13,20,,,,,,,,,2.9,2.2,1.9*3D
207,,,A*79
$GPGGA,050433.983,2409.0731,N,12040.1456,E,1,05,1.5,121.5,M,,,,0000*01
$GPGSA,A,3,17,04,28,13,20,,,,,,,,2.4,1.5,1.9*30
02,26,287,29*7D
$GPGSV,3,2,09,28,26,176,38,23,22,072,22,10,13,218,,20,08,039,26*7C
$GPGSV,3,3,09,12,07,319,28*45
$GPRMC,050433.983,A,2409.0731,N,12040.1456,E,0.00,,050207,,,A*78
$GPGGA,050434.983,2409.0731,N,12040.1456,E,1,05,1.5,121.5,M,,,,0000*06
$GPGSA,A,3,17,04,28,13,20,,,,,,,,2.4,1.5,1.9*30
,050207,,,A*7F
$GPGGA,050435.983,2409.0731,N,12040.1456,E,1,04,2.3,121.5,M,,,,0000*03
$GPGSA,A,3,17,28,13,20,,,,,,,,,2.9,2.3,1.9*3C
050207,,,A*7E
$GPGGA,050436.983,2409.0731,N,12040.1456,E,1,05,1.5,121.5,M,,,,0000*04
$GPGSA,A,3,17,04,28,13,20,,,,,,,,2.4,1.5,1.9*30
0.00,,050207,,,A*7D
$GPGGA,050437.983,2409.0731,N,12040.1456,E,1,05,1.5,121.5,M,,,,0000*05
$GPGSA,A,3,17,04,28,13,20,,,,,,,,2.4,1.5,1.9*30
,050207,,,A*7C
$GPGGA,050438.983,2409.0731,N,12040.1456,E,1,05,1.5,121.5,M,,,,0000*0A
$GPGSA,A,3,17,04,28,13,20,,,,,,,,2.4,1.5,1.9*30
,40,02,26,287,27*7B
$GPGSV,3,2,09,28,26,176,37,23,22,072,20,10,13,218,,20,08,039,26*71
$GPGSV,3,3,09,12,07,319,26*4B
$GPRMC,050438.983,A,2409.0731,N,12040.1456,E,0.00,,050207,,,A*73
$GPGGA,050439.983,2409.0731,N,12040.1456,E,1,05,1.5,121.5,M,,,,0000*0B
$GPGSA,A,3,17,04,28,13,20,,,,,,,,2.4,1.5,1.9*30
.00,,050207,,,A*72
$GPGGA,050440.983,2409.0731,N,12040.1456,E,1,05,1.5,121.5,M,,,,0000*05
$GPGSA,A,3,17,04,28,13,20,,,,,,,,2.4,1.5,1.9*30
.00,,050207,,,A*7C
$GPGGA,050441.983,2409.0731,N,12040.1456,E,1,05,1.5,121.5,M,,,,0000*04
$GPGSA,A,3,17,04,28,13,20,,,,,,,,2.4,1.5,1.9*30
,050207,,,A*7D
$GPGGA,050442.982,2409.0731,N,12040.1456,E,1,05,1.5,121.5,M,,,,0000*06
$GPGSA,A,3,17,04,28,13,20,,,,,,,,2.4,1.5,1.9*30
207,,,A*7F
$GPGGA,050443.982,2409.0731,N,12040.1456,E,1,05,1.5,121.5,M,,,,0000*07
$GPGSA,A,3,17,04,28,13,20,,,,,,,,2.4,1.5,1.9*30
2,26,287,27*7B
$GPGSV,3,2,09,28,26,176,34,23,22,072,25,10,13,218,,20,08,039,25*74
$GPGSV,3,3,09,12,07,319,27*4A
$GPRMC,050443.982,A,2409.0731,N,12040.1456,E,0.00,,050207,,,A*7E
$GPGGA,050444.982,2409.0731,N,12040.1456,E,1,05,1.5,121.5,M,,,,0000*00
$GPGSA,A,3,17,04,28,13,20,,,,,,,,2.4,1.5,1.9*30
050207,,,A*79
$GPGGA,050445.982,2409.0731,N,12040.1456,E,1,05,1.5,121.5,M,,,,0000*01
$GPGSA,A,3,17,04,28,13,20,,,,,,,,2.4,1.5,1.9*30
0207,,,A*78
$GPGGA,050446.982,2409.0731,N,12040.1456,E,1,05,1.5,121.5,M,,,,0000*02
$GPGSA,A,3,17,04,28,13,20,,,,,,,,2.4,1.5,1.9*30
207,,,A*7B
$GPGGA,050447.982,2409.0731,N,12040.1456,E,1,05,1.5,121.5,M,,,,0000*03
$GPGSA,A,3,17,04,28,13,20,,,,,,,,2.4,1.5,1.9*30
0,,050207,,,A*7A
$GPGGA,050448.982,2409.0731,N,12040.1456,E,1,05,1.5,121.5,M,,,,0000*0C
$GPGSA,A,3,17,04,28,13,20,,,,,,,,2.4,1.5,1.9*30
2,26,287,27*7C
$GPGSV,3,2,09,28,26,176,34,23,22,072,21,10,13,218,,20,08,039,26*73
$GPGSV,3,3,09,12,07,319,25*48
$GPRMC,050448.982,A,2409.0731,N,12040.1456,E,0.00,,050207,,,A*75
$GPGGA,050449.982,2409.0731,N,12040.1456,E,1,05,1.5,121.5,M,,,,0000*0D
$GPGSA,A,3,17,04,28,13,20,,,,,,,,2.4,1.5,1.9*30
7,,,A*74
$GPGGA,050450.982,2409.0731,N,12040.1456,E,1,05,1.5,121.5,M,,,,0000*05
$GPGSA,A,3,17,04,28,13,20,,,,,,,,2.4,1.5,1.9*30
07,,,A*7C
$GPGGA,050451.982,2409.0731,N,12040.1456,E,1,05,1.5,121.5,M,,,,0000*04
$GPGSA,A,3,17,04,28,13,20,,,,,,,,2.4,1.5,1.9*30
0207,,,A*7D
$GPGGA,050452.982,2409.0731,N,12040.1456,E,1,05,1.5,121.5,M,,,,0000*07
$GPGSA,A,3,17,04,28,13,20,,,,,,,,2.4,1.5,1.9*30
207,,,A*7E
$GPGGA,050453.982,2409.0731,N,12040.1456,E,1,05,1.5,121.5,M,,,,0000*06
$GPGSA,A,3,17,04,28,13,20,,,,,,,,2.4,1.5,1.9*30
,02,26,287,26*77
$GPGSV,3,2,09,28,26,176,34,23,22,072,22,10,13,218,,20,08,039,27*71
$GPGSV,3,3,09,12,07,319,26*4B
$GPRMC,050453.982,A,2409.0731,N,12040.1456,E,0.00,,050207,,,A*7F
$GPGGA,050454.982,2409.0731,N,12040.1456,E,1,05,1.5,121.5,M,,,,0000*01
$GPGSA,A,3,17,04,28,13,20,,,,,,,,2.4,1.5,1.9*30
,,A*78
$GPGGA,050455.982,2409.0731,N,12040.1456,E,1,05,1.5,121.5,M,,,,0000*00
$GPGSA,A,3,17,04,28,13,20,,,,,,,,2.4,1.5,1.9*30
,,A*79
$GPGGA,050456.982,2409.0731,N,12040.1456,E,1,05,1.5,121.5,M,,,,0000*03
$GPGSA,A,3,17,04,28,13,20,,,,,,,,2.4,1.5,1.9*30
207,,,A*7A
$GPGGA,050457.982,2409.0731,N,12040.1456,E,1,05,1.5,121.5,M,,,,0000*02
$GPGSA,A,3,17,04,28,13,20,,,,,,,,2.4,1.5,1.9*30
7,,,A*7B
$GPGGA,050458.982,2409.0731,N,12040.1456,E,1,05,1.5,121.5,M,,,,0000*0D
$GPGSA,A,3,17,04,28,13,20,,,,,,,,2.4,1.5,1.9*30
,02,26,287,25*72
$GPGSV,3,2,09,28,26,176,32,23,22,072,16,10,13,218,,20,08,039,25*72
$GPGSV,3,3,09,12,07,319,25*48
$GPRMC,050458.982,A,2409.0731,N,12040.1456,E,0.00,,050207,,,A*74
$GPGGA,050459.981,2409.0731,N,12040.1456,E,1,05,1.5,121.5,M,,,,0000*0F
$GPGSA,A,3,17,04,28,13,20,,,,,,,,2.4,1.5,1.9*30
0207,,,A*76
$GPGGA,050500.981,2409.0731,N,12040.1456,E,1,05,1.5,121.5,M,,,,0000*02
$GPGSA,A,3,17,04,28,13,20,,,,,,,,2.4,1.5,1.9*30
207,,,A*7B
$GPGGA,050501.981,2409.0731,N,12040.1456,E,1,05,1.5,121.5,M,,,,0000*03
$GPGSA,A,3,17,04,28,13,20,,,,,,,,2.4,1.5,1.9*30
,,050207,,,A*7A
$GPGGA,050502.981,2409.0731,N,12040.1456,E,1,05,1.5,121.5,M,,,,0000*00
$GPGSA,A,3,17,04,28,13,20,,,,,,,,2.4,1.5,1.9*30
,,,A*79
$GPGGA,050503.981,2409.0731,N,12040.1456,E,1,05,1.5,121.5,M,,,,0000*01
$GPGSA,A,3,17,04,28,13,20,,,,,,,,2.4,1.5,1.9*30
07,38,02,26,287,28*7E
$GPGSV,3,2,09,28,26,176,32,23,22,072,16,10,13,218,,20,08,039,27*70
$GPGSV,3,3,09,12,07,319,27*4A
$GPRMC,050503.981,A,2409.0731,N,12040.1456,E,0.00,,050207,,,A*78
$GPGGA,050504.981,2409.0731,N,12040.1456,E,1,05,1.5,121.5,M,,,,0000*06
$GPGSA,A,3,17,04,28,13,20,,,,,,,,2.4,1.5,1.9*30
0207,,,A*7F
$GPGGA,050505.981,2409.0731,N,12040.1456,E,1,05,1.5,121.5,M,,,,0000*07
$GPGSA,A,3,17,04,28,13,20,,,,,,,,2.4,1.5,1.9*30
050207,,,A*7E
$GPGGA,050506.981,2409.0731,N,12040.1456,E,1,05,1.5,121.5,M,,,,0000*04
$GPGSA,A,3,17,04,28,13,20,,,,,,,,2.4,1.5,1.9*30
0207,,,A*7D
$GPGGA,050507.981,2409.0731,N,12040.1456,E,1,05,1.5,121.5,M,,,,0000*05
$GPGSA,A,3,17,04,28,13,20,,,,,,,,2.4,1.5,1.9*30
0207,,,A*7C
$GPGGA,050508.981,2409.0731,N,12040.1456,E,1,05,1.5,121.5,M,,,,0000*0A
$GPGSA,A,3,17,04,28,13,20,,,,,,,,2.4,1.5,1.9*30
,02,26,287,22*74
$GPGSV,3,2,09,28,26,176,28,23,22,072,16,10,13,218,,20,08,039,24*78
$GPGSV,3,3,09,12,07,319,25*48
$GPRMC,050508.981,A,2409.0731,N,12040.1456,E,0.00,,050207,,,A*73
$GPGGA,050509.981,2409.0731,N,12040.1456,E,1,05,1.5,121.5,M,,,,0000*0B
