$GPGGA,052245.397,2409.0937,N,12039.9447,E,1,03,45.0,0.0,M,,,,0000*31
$GPGSA,A,2,10,04,13,,,,,,,,,,50.0,45.0,50.0*05
$GPRMC,052245.397,A,2409.0937,N,12039.9447,E,0.00,,050307,,,A*7D
$GPGGA,052246.397,2409.0935,N,12039.9450,E,1,03,45.0,0.0,M,,,,0000*36
$GPGSA,A,2,10,04,13,,,,,,,,,,50.0,45.0,50.0*05
$GPRMC,052246.397,A,2409.0935,N,12039.9450,E,0.00,,050307,,,A*7A
$GPGGA,052247.397,2409.0931,N,12039.9451,E,1,03,45.0,0.0,M,,,,0000*32
$GPGSA,A,2,10,04,13,,,,,,,,,,50.0,45.0,50.0*05
$GPRMC,052247.397,A,2409.0931,N,12039.9451,E,0.00,,050307,,,A*7E
$GPGGA,052248.397,2409.0927,N,12039.9450,E,1,03,44.9,0.0,M,,,,0000*33
$GPGSA,A,2,10,04,13,,,,,,,,,,50.0,44.9,50.0*0D
$GPGSV,3,1,11,07,76,212,,10,55,285,46,24,50,037,,17,49,352,29*73
$GPGSV,3,2,11,04,43,066,45,13,18,041,37,31,16,318,,26,15,196,*71
26,,30,09,288,,29,09,200,*40
$GPRMC,052248.397,A,2409.0927,N,12039.9450,E,0.00,,050307,,,A*77
$GPGGA,052249.397,2409.0910,N,12039.9454,E,1,03,44.9,0.0,M,,,,0000*32
$GPGSA,A,2,10,04,13,,,,,,,,,,50.0,44.9,50.0*0D
$GPRMC,052249.397,A,2409.0910,N,12039.9454,E,0.00,,050307,,,A*76
$GPGGA,052250.397,2409.0939,N,12039.9439,E,1,03,44.9,0.0,M,,,,0000*3A
$GPGSA,A,2,10,04,13,,,,,,,,,,50.0,44.9,50.0*0D
$GPRMC,052250.397,A,2409.0939,N,12039.9439,E,0.00,,050307,,,A*7E
$GPGGA,052251.397,2409.0956,N,12039.9437,E,1,03,44.9,0.0,M,,,,0000*3C
$GPGSA,A,2,10,04,13,,,,,,,,,,50.0,44.9,50.0*0D
$GPRMC,052251.397,A,2409.0956,N,12039.9437,E,0.00,,050307,,,A*78
$GPGGA,052252.397,2409.0933,N,12039.9441,E,1,03,44.9,0.0,M,,,,0000*3D
$GPGSA,A,2,10,04,13,,,,,,,,,,50.0,44.9,50.0*0D
$GPRMC,052252.397,A,2409.0933,N,12039.9441,E,0.00,,050307,,,A*79
$GPGGA,052253.397,2409.0922,N,12039.9450,E,1,03,44.9,0.0,M,,,,0000*3C
$GPGSA,A,2,10,04,13,,,,,,,,,,50.0,44.9,50.0*0D
$GPGSV,3,1,11,07,76,212,,10,55,285,47,24,50,037,,17,49,352,26*7D
$GPGSV,3,2,11,04,43,066,45,13,18,041,38,31,16,318,,26,15,196,*7E
26,,30,09,288,,29,09,200,*40
$GPRMC,052253.397,A,2409.0922,N,12039.9450,E,0.00,,050307,,,A*78
$GPGGA,052254.397,2409.0933,N,12039.9447,E,1,03,44.9,0.0,M,,,,0000*3D
$GPGSA,A,2,10,04,13,,,,,,,,,,50.0,44.9,50.0*0D
$GPRMC,052254.397,A,2409.0933,N,12039.9447,E,0.00,,050307,,,A*79
$GPGGA,052255.397,2409.0920,N,12039.9449,E,1,03,44.8,0.0,M,,,,0000*31
$GPGSA,A,2,10,04,13,,,,,,,,,,50.0,44.8,50.0*0C
$GPRMC,052255.397,A,2409.0920,N,12039.9449,E,0.00,,050307,,,A*74
$GPGGA,052256.397,2409.0912,N,12039.9447,E,1,03,44.9,0.0,M,,,,0000*3C
$GPGSA,A,2,10,04,13,,,,,,,,,,50.0,44.9,50.0*0D
$GPRMC,052256.397,A,2409.0912,N,12039.9447,E,0.00,,050307,,,A*78
$GPGGA,052257.397,2409.0906,N,12039.9446,E,1,03,44.8,0.0,M,,,,0000*38
$GPGSA,A,2,10,04,13,,,,,,,,,,50.0,44.8,50.0*0C
$GPRMC,052257.397,A,2409.0906,N,12039.9446,E,0.00,,050307,,,A*7D
$GPGGA,052258.397,2409.0911,N,12039.9445,E,1,03,44.8,0.0,M,,,,0000*32
$GPGSA,A,2,10,04,13,,,,,,,,,,50.0,44.8,50.0*0C
$GPGSV,3,1,11,07,76,212,,10,55,285,46,24,50,037,,17,49,352,24*7E
$GPGSV,3,2,11,04,43,066,45,13,18,041,37,31,16,318,,26,15,196,*71
26,,30,09,288,,29,09,200,*40
$GPRMC,052258.397,A,2409.0911,N,12039.9445,E,0.00,,050307,,,A*77
$GPGGA,052259.396,2409.0901,N,12039.9450,E,1,03,44.8,0.0,M,,,,0000*37
$GPGSA,A,2,10,04,13,,,,,,,,,,50.0,44.8,50.0*0C
$GPRMC,052259.396,A,2409.0901,N,12039.9450,E,0.00,,050307,,,A*72
$GPGGA,052300.396,2409.0923,N,12039.9444,E,1,03,44.8,0.0,M,,,,0000*3F
$GPGSA,A,2,10,04,13,,,,,,,,,,50.0,44.8,50.0*0C
$GPRMC,052300.396,A,2409.0923,N,12039.9444,E,0.00,,050307,,,A*7A
$GPGGA,052301.396,2409.0930,N,12039.9450,E,1,03,44.8,0.0,M,,,,0000*39
$GPGSA,A,2,10,04,13,,,,,,,,,,50.0,44.8,50.0*0C
$GPRMC,052301.396,A,2409.0930,N,12039.9450,E,0.00,,050307,,,A*7C
$GPGGA,052302.396,2409.0933,N,12039.9446,E,1,03,44.8,0.0,M,,,,0000*3E
$GPGSA,A,2,10,04,13,,,,,,,,,,50.0,44.8,50.0*0C
$GPRMC,052302.396,A,2409.0933,N,12039.9446,E,0.00,,050307,,,A*7B
$GPGGA,052303.396,2409.0913,N,12039.9448,E,1,03,44.8,0.0,M,,,,0000*33
$GPGSA,A,2,10,04,13,,,,,,,,,,50.0,44.8,50.0*0C
$GPGSV,3,1,11,07,76,212,,10,55,285,46,24,50,037,,17,49,352,26*7C
$GPGSV,3,2,11,04,43,066,45,13,18,041,37,31,16,318,,26,15,196,*71
,,30,09,288,,29,09,200,*40
$GPRMC,052303.396,A,2409.0913,N,12039.9448,E,0.00,,050307,,,A*76
$GPGGA,052304.396,2409.0906,N,12039.9448,E,1,03,44.8,0.0,M,,,,0000*30
$GPGSA,A,2,10,04,13,,,,,,,,,,50.0,44.8,50.0*0C
$GPRMC,052304.396,A,2409.0906,N,12039.9448,E,0.00,,050307,,,A*75
$GPGGA,052305.396,2409.0926,N,12039.9444,E,1,03,44.8,0.0,M,,,,0000*3F
$GPGSA,A,2,10,04,13,,,,,,,,,,50.0,44.8,50.0*0C
$GPRMC,052305.396,A,2409.0926,N,12039.9444,E,0.00,,050307,,,A*7A
$GPGGA,052306.396,2409.0926,N,12039.9442,E,1,03,44.8,0.0,M,,,,0000*3A
$GPGSA,A,2,10,04,13,,,,,,,,,,50.0,44.8,50.0*0C
$GPRMC,052306.396,A,2409.0926,N,12039.9442,E,0.00,,050307,,,A*7F
$GPGGA,052307.396,2409.0946,N,12039.9442,E,1,03,44.7,0.0,M,,,,0000*32
$GPGSA,A,2,10,04,13,,,,,,,,,,50.0,44.7,50.0*03
$GPRMC,052307.396,A,2409.0946,N,12039.9442,E,0.00,,050307,,,A*78
$GPGGA,052308.396,2409.0934,N,12039.9443,E,1,03,44.7,0.0,M,,,,0000*39
$GPGSA,A,2,10,04,13,,,,,,,,,,50.0,44.7,50.0*03
$GPGSV,3,1,11,07,76,212,,10,55,285,46,24,50,037,,17,49,352,25*7F
$GPGSV,3,2,11,04,43,066,45,13,18,041,38,31,16,318,,26,15,196,*7E
,30,09,288,,29,09,200,*40
$GPRMC,052308.396,A,2409.0934,N,12039.9443,E,0.00,,050307,,,A*73
$GPGGA,052309.396,2409.0954,N,12039.9439,E,1,03,44.7,0.0,M,,,,0000*33
$GPGSA,A,2,10,04,13,,,,,,,,,,50.0,44.7,50.0*03
$GPRMC,052309.396,A,2409.0954,N,12039.9439,E,0.00,,050307,,,A*79
$GPGGA,052310.396,2409.0966,N,12039.9437,E,1,03,44.7,0.0,M,,,,0000*34
$GPGSA,A,2,10,04,13,,,,,,,,,,50.0,44.7,50.0*03
$GPRMC,052310.396,A,2409.0966,N,12039.9437,E,0.00,,050307,,,A*7E
$GPGGA,052311.396,2409.0940,N,12039.9443,E,1,03,44.7,0.0,M,,,,0000*32
$GPGSA,A,2,10,04,13,,,,,,,,,,50.0,44.7,50.0*03
$GPRMC,052311.396,A,2409.0940,N,12039.9443,E,0.00,,050307,,,A*78
$GPGGA,052312.396,2409.0930,N,12039.9440,E,1,03,44.7,0.0,M,,,,0000*35
$GPGSA,A,2,10,04,13,,,,,,,,,,50.0,44.7,50.0*03
$GPRMC,052312.396,A,2409.0930,N,12039.9440,E,0.00,,050307,,,A*7F
$GPGGA,052313.396,2409.0928,N,12039.9442,E,1,03,44.7,0.0,M,,,,0000*3F
$GPGSA,A,2,10,04,13,,,,,,,,,,50.0,44.7,50.0*03
$GPGSV,3,1,09,07,76,212,,10,55,285,46,17,49,352,26,04,43,066,45*70
$GPGSV,3,2,09,13,18,041,38,31,16,318,,26,15,196,,27,10,126,*74
48
$GPRMC,052313.396,A,2409.0928,N,12039.9442,E,0.00,,050307,,,A*75
$GPGGA,052314.396,2409.0925,N,12039.9438,E,1,03,44.7,0.0,M,,,,0000*38
$GPGSA,A,2,10,04,13,,,,,,,,,,50.0,44.7,50.0*03
$GPRMC,052314.396,A,2409.0925,N,12039.9438,E,0.00,,050307,,,A*72
$GPGGA,052315.395,2409.0929,N,12039.9438,E,1,03,44.7,0.0,M,,,,0000*36
$GPGSA,A,2,10,04,13,,,,,,,,,,50.0,44.7,50.0*03
$GPRMC,052315.395,A,2409.0929,N,12039.9438,E,0.00,,050307,,,A*7C
$GPGGA,052316.395,2409.0939,N,12039.9436,E,1,03,44.7,0.0,M,,,,0000*3A
$GPGSA,A,2,10,04,13,,,,,,,,,,50.0,44.7,50.0*03
$GPRMC,052316.395,A,2409.0939,N,12039.9436,E,0.00,,050307,,,A*70
$GPGGA,052317.395,2409.0928,N,12039.9439,E,1,03,44.6,0.0,M,,,,0000*35
$GPGSA,A,2,10,04,13,,,,,,,,,,50.0,44.6,50.0*02
$GPRMC,052317.395,A,2409.0928,N,12039.9439,E,0.00,,050307,,,A*7E
$GPGGA,052318.395,2409.0931,N,12039.9437,E,1,03,44.6,0.0,M,,,,0000*3C
$GPGSA,A,2,10,04,13,,,,,,,,,,50.0,44.6,50.0*02
$GPGSV,3,1,09,07,75,212,,10,55,285,46,17,49,353,25,04,43,066,45*71
$GPGSV,3,2,09,13,18,041,38,31,16,318,,26,15,196,,27,10,125,*77
09,288,*48
$GPRMC,052318.395,A,2409.0931,N,12039.9437,E,0.00,,050307,,,A*77
$GPGGA,052319.395,2409.0935,N,12039.9435,E,1,03,44.6,0.0,M,,,,0000*3B
$GPGSA,A,2,10,04,13,,,,,,,,,,50.0,44.6,50.0*02
$GPRMC,052319.395,A,2409.0935,N,12039.9435,E,0.00,,050307,,,A*70
$GPGGA,052320.395,2409.0929,N,12039.9436,E,1,03,44.6,0.0,M,,,,0000*3F
$GPGSA,A,2,10,04,13,,,,,,,,,,50.0,44.6,50.0*02
$GPRMC,052320.395,A,2409.0929,N,12039.9436,E,0.00,,050307,,,A*74
$GPGGA,052321.395,2409.0932,N,12039.9430,E,1,03,44.6,0.0,M,,,,0000*32
$GPGSA,A,2,10,04,13,,,,,,,,,,50.0,44.6,50.0*02
$GPRMC,052321.395,A,2409.0932,N,12039.9430,E,0.00,,050307,,,A*79
$GPGGA,052322.395,2409.0926,N,12039.9429,E,1,03,44.6,0.0,M,,,,0000*3C
$GPGSA,A,2,10,04,13,,,,,,,,,,50.0,44.6,50.0*02
$GPRMC,052322.395,A,2409.0926,N,12039.9429,E,0.00,,050307,,,A*77
$GPGGA,052323.395,2409.0933,N,12039.9435,E,1,03,44.6,0.0,M,,,,0000*34
$GPGSA,A,2,10,04,13,,,,,,,,,,50.0,44.6,50.0*02
$GPGSV,3,1,09,07,75,212,,10,55,285,46,17,49,353,25,04,43,066,45*71
$GPGSV,3,2,09,13,18,041,38,31,16,318,,26,15,196,,27,10,125,*77
8,*48
$GPRMC,052323.395,A,2409.0933,N,12039.9435,E,0.00,,050307,,,A*7F
$GPGGA,052324.395,2409.0945,N,12039.9430,E,1,03,44.6,0.0,M,,,,0000*37
$GPGSA,A,2,10,04,13,,,,,,,,,,50.0,44.6,50.0*02
$GPRMC,052324.395,A,2409.0945,N,12039.9430,E,0.00,,050307,,,A*7C
$GPGGA,052325.395,2409.0929,N,12039.9434,E,1,03,44.5,0.0,M,,,,0000*3B
$GPGSA,A,2,10,04,13,,,,,,,,,,50.0,44.5,50.0*01
$GPRMC,052325.395,A,2409.0929,N,12039.9434,E,0.00,,050307,,,A*73
$GPGGA,052326.395,2409.0924,N,12039.9436,E,1,03,44.6,0.0,M,,,,0000*34
$GPGSA,A,2,10,04,13,,,,,,,,,,50.0,44.6,50.0*02
$GPRMC,052326.395,A,2409.0924,N,12039.9436,E,0.00,,050307,,,A*7F
$GPGGA,052327.395,2409.0923,N,12039.9433,E,1,03,44.5,0.0,M,,,,0000*34
$GPGSA,A,2,10,04,13,,,,,,,,,,50.0,44.5,50.0*01
$GPRMC,052327.395,A,2409.0923,N,12039.9433,E,0.00,,050307,,,A*7C
$GPGGA,052328.395,2409.0943,N,12039.9430,E,1,03,44.5,0.0,M,,,,0000*3E
$GPGSA,A,2,10,04,13,,,,,,,,,,50.0,44.5,50.0*01
$GPGSV,3,1,09,07,75,212,,10,55,285,46,17,49,353,25,04,43,066,44*70
$GPGSV,3,2,09,13,18,041,39,31,16,318,,26,15,196,,27,10,125,*76
,*48
$GPRMC,052328.395,A,2409.0943,N,12039.9430,E,0.00,,050307,,,A*76
$GPGGA,052329.395,2409.0920,N,12039.9432,E,1,03,44.5,0.0,M,,,,0000*38
$GPGSA,A,2,10,04,13,,,,,,,,,,50.0,44.5,50.0*01
$GPRMC,052329.395,A,2409.0920,N,12039.9432,E,0.00,,050307,,,A*70
$GPGGA,052330.395,2409.0927,N,12039.9433,E,1,03,44.5,0.0,M,,,,0000*36
$GPGSA,A,2,10,04,13,,,,,,,,,,50.0,44.5,50.0*01
$GPRMC,052330.395,A,2409.0927,N,12039.9433,E,0.00,,050307,,,A*7E
$GPGGA,052331.395,2409.0947,N,12039.9430,E,1,03,44.5,0.0,M,,,,0000*32
$GPGSA,A,2,10,04,13,,,,,,,,,,50.0,44.5,50.0*01
$GPRMC,052331.395,A,2409.0947,N,12039.9430,E,0.00,,050307,,,A*7A
$GPGGA,052332.394,2409.0944,N,12039.9433,E,1,03,44.5,0.0,M,,,,0000*30
$GPGSA,A,2,10,04,13,,,,,,,,,,50.0,44.5,50.0*01
$GPRMC,052332.394,A,2409.0944,N,12039.9433,E,0.00,,050307,,,A*78
$GPGGA,052333.394,2409.0944,N,12039.9428,E,1,03,44.5,0.0,M,,,,0000*3B
$GPGSA,A,2,10,04,13,,,,,,,,,,50.0,44.5,50.0*01
$GPGSV,3,1,09,07,75,212,,10,55,285,46,17,49,353,25,04,43,066,44*70
$GPGSV,3,2,09,13,18,041,38,31,16,318,,26,15,196,,27,10,125,*77
$GPGSV,3,3,09,30,09,288,*48
$GPRMC,052333.394,A,2409.0944,N,12039.9428,E,0.00,,050307,,,A*73
$GPGGA,052334.394,2409.0918,N,12039.9436,E,1,03,44.5,0.0,M,,,,0000*3A
$GPGSA,A,2,10,04,13,,,,,,,,,,50.0,44.5,50.0*01
$GPRMC,052334.394,A,2409.0918,N,12039.9436,E,0.00,,050307,,,A*72
$GPGGA,052335.394,2409.0913,N,12039.9438,E,1,03,44.5,0.0,M,,,,0000*3E
$GPGSA,A,2,10,04,13,,,,,,,,,,50.0,44.5,50.0*01
$GPRMC,052335.394,A,2409.0913,N,12039.9438,E,0.00,,050307,,,A*76
$GPGGA,052336.394,2409.0923,N,12039.9440,E,1,03,44.4,0.0,M,,,,0000*30
$GPGSA,A,2,10,04,13,,,,,,,,,,50.0,44.4,50.0*00
$GPRMC,052336.394,A,2409.0923,N,12039.9440,E,0.00,,050307,,,A*79
$GPGGA,052337.394,2409.0919,N,12039.9439,E,1,03,44.4,0.0,M,,,,0000*36
$GPGSA,A,2,10,04,13,,,,,,,,,,50.0,44.4,50.0*00
$GPRMC,052337.394,A,2409.0919,N,12039.9439,E,0.00,,050307,,,A*7F
$GPGGA,052338.394,2409.0931,N,12039.9432,E,1,03,44.4,0.0,M,,,,0000*38
$GPGSA,A,2,10,04,13,,,,,,,,,,50.0,44.4,50.0*00
$GPGSV,3,1,09,07,75,212,,10,55,285,46,17,49,353,26,04,43,066,44*73
$GPGSV,3,2,09,13,18,041,38,31,16,318,,26,15,196,,27,10,125,*77
9,288,*48
$GPRMC,052338.394,A,2409.0931,N,12039.9432,E,0.00,,050307,,,A*71
$GPGGA,052339.394,2409.0927,N,12039.9436,E,1,03,44.4,0.0,M,,,,0000*3A
$GPGSA,A,2,10,04,13,,,,,,,,,,50.0,44.4,50.0*00
$GPRMC,052339.394,A,2409.0927,N,12039.9436,E,0.00,,050307,,,A*73
$GPGGA,052340.394,2409.0949,N,12039.9429,E,1,03,44.4,0.0,M,,,,0000*32
$GPGSA,A,2,10,04,13,,,,,,,,,,50.0,44.4,50.0*00
$GPRMC,052340.394,A,2409.0949,N,12039.9429,E,0.00,,050307,,,A*7B
$GPGGA,052341.394,2409.0927,N,12039.9431,E,1,03,44.4,0.0,M,,,,0000*32
$GPGSA,A,2,10,04,13,,,,,,,,,,50.0,44.4,50.0*00
$GPRMC,052341.394,A,2409.0927,N,12039.9431,E,0.00,,050307,,,A*7B
$GPGGA,052342.394,2409.0928,N,12039.9428,E,1,03,44.4,0.0,M,,,,0000*36
$GPGSA,A,2,10,04,13,,,,,,,,,,50.0,44.4,50.0*00
$GPRMC,052342.394,A,2409.0928,N,12039.9428,E,0.00,,050307,,,A*7F
$GPGGA,052343.394,2409.0914,N,12039.9431,E,1,03,44.4,0.0,M,,,,0000*30
$GPGSA,A,2,10,04,13,,,,,,,,,,50.0,44.4,50.0*00
$GPGSV,3,1,09,07,75,211,,10,55,286,46,17,49,353,25,04,43,066,44*70
$GPGSV,3,2,09,13,18,041,38,31,16,318,,26,15,196,,27,10,125,*77
,*48
$GPRMC,052343.394,A,2409.0914,N,12039.9431,E,0.00,,050307,,,A*79
$GPGGA,052344.394,2409.0938,N,12039.9426,E,1,03,44.4,0.0,M,,,,0000*3F
$GPGSA,A,2,10,04,13,,,,,,,,,,50.0,44.4,50.0*00
$GPRMC,052344.394,A,2409.0938,N,12039.9426,E,0.00,,050307,,,A*76
$GPGGA,052345.394,2409.0929,N,12039.9430,E,1,03,44.4,0.0,M,,,,0000*39
$GPGSA,A,2,10,04,13,,,,,,,,,,50.0,44.4,50.0*00
$GPRMC,052345.394,A,2409.0929,N,12039.9430,E,0.00,,050307,,,A*70
$GPGGA,052346.394,2409.0932,N,12039.9423,E,1,03,44.4,0.0,M,,,,0000*32
$GPGSA,A,2,10,04,13,,,,,,,,,,50.0,44.4,50.0*00
$GPRMC,052346.394,A,2409.0932,N,12039.9423,E,0.00,,050307,,,A*7B
$GPGGA,052347.394,2409.0919,N,12039.9433,E,1,03,44.3,0.0,M,,,,0000*3C
$GPGSA,A,2,10,04,13,,,,,,,,,,50.0,44.3,50.0*07
$GPRMC,052347.394,A,2409.0919,N,12039.9433,E,0.00,,050307,,,A*72
$GPGGA,052348.393,2409.0925,N,12039.9433,E,1,03,44.3,0.0,M,,,,0000*3B
$GPGSA,A,2,10,04,13,,,,,,,,,,50.0,44.3,50.0*07
$GPGSV,3,1,09,07,75,211,,10,55,286,46,17,49,353,26,04,43,066,44*73
$GPGSV,3,2,09,13,18,041,38,31,16,318,,26,15,196,,27,10,125,*77
9,288,*48
$GPRMC,052348.393,A,2409.0925,N,12039.9433,E,0.00,,050307,,,A*75
$GPGGA,052349.393,2409.0934,N,12039.9429,E,1,03,44.3,0.0,M,,,,0000*31
$GPGSA,A,2,10,04,13,,,,,,,,,,50.0,44.3,50.0*07
$GPRMC,052349.393,A,2409.0934,N,12039.9429,E,0.00,,050307,,,A*7F
$GPGGA,052350.393,2409.0938,N,12039.9425,E,1,03,44.3,0.0,M,,,,0000*39
$GPGSA,A,2,10,04,13,,,,,,,,,,50.0,44.3,50.0*07
$GPRMC,052350.393,A,2409.0938,N,12039.9425,E,0.00,,050307,,,A*77
$GPGGA,052351.393,2409.0931,N,12039.9428,E,1,03,44.3,0.0,M,,,,0000*3C
$GPGSA,A,2,10,04,13,,,,,,,,,,50.0,44.3,50.0*07
$GPRMC,052351.393,A,2409.0931,N,12039.9428,E,0.00,,050307,,,A*72
$GPGGA,052352.393,2409.0925,N,12039.9429,E,1,03,44.3,0.0,M,,,,0000*3B
$GPGSA,A,2,10,04,13,,,,,,,,,,50.0,44.3,50.0*07
$GPRMC,052352.393,A,2409.0925,N,12039.9429,E,0.00,,050307,,,A*75
$GPGGA,052353.393,2409.0913,N,12039.9432,E,1,03,44.3,0.0,M,,,,0000*35
$GPGSA,A,2,10,04,13,,,,,,,,,,50.0,44.3,50.0*07
$GPGSV,3,1,09,07,75,211,,10,55,286,45,17,49,353,25,04,43,066,44*73
$GPGSV,3,2,09,13,18,041,38,31,16,318,,26,15,196,,27,10,125,*77
8,*48
$GPRMC,052353.393,A,2409.0913,N,12039.9432,E,0.00,,050307,,,A*7B
$GPGGA,052354.393,2409.0935,N,12039.9429,E,1,03,44.3,0.0,M,,,,0000*3C
$GPGSA,A,2,10,04,13,,,,,,,,,,50.0,44.3,50.0*07
$GPRMC,052354.393,A,2409.0935,N,12039.9429,E,0.00,,050307,,,A*72
$GPGGA,052355.393,2409.0920,N,12039.9433,E,1,03,44.3,0.0,M,,,,0000*32
$GPGSA,A,2,10,04,13,,,,,,,,,,50.0,44.3,50.0*07
$GPRMC,052355.393,A,2409.0920,N,12039.9433,E,0.00,,050307,,,A*7C
$GPGGA,052356.393,2409.0934,N,12039.9433,E,1,03,44.3,0.0,M,,,,0000*34
$GPGSA,A,2,10,04,13,,,,,,,,,,50.0,44.3,50.0*07
$GPRMC,052356.393,A,2409.0934,N,12039.9433,E,0.00,,050307,,,A*7A
$GPGGA,052357.393,2409.0952,N,12039.9425,E,1,03,44.2,0.0,M,,,,0000*33
$GPGSA,A,2,10,04,13,,,,,,,,,,50.0,44.2,50.0*06
$GPRMC,052357.393,A,2409.0952,N,12039.9425,E,0.00,,050307,,,A*7C
$GPGGA,052358.393,2409.0944,N,12039.9427,E,1,03,44.2,0.0,M,,,,0000*39
$GPGSA,A,2,10,04,13,,,,,,,,,,50.0,44.2,50.0*06
$GPGSV,3,1,09,07,75,211,,10,55,286,46,17,49,353,25,04,43,066,44*70
$GPGSV,3,2,09,13,18,041,38,31,16,318,,26,15,196,,27,10,125,*77
48
$GPRMC,052358.393,A,2409.0944,N,12039.9427,E,0.00,,050307,,,A*76
$GPGGA,052359.393,2409.0936,N,12039.9426,E,1,03,44.2,0.0,M,,,,0000*3C
$GPGSA,A,2,10,04,13,,,,,,,,,,50.0,44.2,50.0*06
$GPRMC,052359.393,A,2409.0936,N,12039.9426,E,0.00,,050307,,,A*73
$GPGGA,052400.393,2409.0927,N,12039.9428,E,1,03,44.2,0.0,M,,,,0000*39
$GPGSA,A,2,10,04,13,,,,,,,,,,50.0,44.2,50.0*06
$GPRMC,052400.393,A,2409.0927,N,12039.9428,E,0.00,,050307,,,A*76
$GPGGA,052401.393,2409.0933,N,12039.9423,E,1,03,44.2,0.0,M,,,,0000*36
$GPGSA,A,2,10,04,13,,,,,,,,,,50.0,44.2,50.0*06
$GPRMC,052401.393,A,2409.0933,N,12039.9423,E,0.00,,050307,,,A*79
$GPGGA,052402.393,2409.0933,N,12039.9423,E,1,03,44.2,0.0,M,,,,0000*35
$GPGSA,A,2,10,04,13,,,,,,,,,,50.0,44.2,50.0*06
$GPRMC,052402.393,A,2409.0933,N,12039.9423,E,0.00,,050307,,,A*7A
$GPGGA,052403.393,2409.0934,N,12039.9425,E,1,03,44.2,0.0,M,,,,0000*35
$GPGSA,A,2,10,04,13,,,,,,,,,,50.0,44.2,50.0*06
$GPGSV,3,1,09,07,75,211,,10,55,286,45,17,49,353,26,04,43,066,44*70
$GPGSV,3,2,09,13,18,041,38,31,16,318,,26,15,196,,27,10,125,*77
$GPGSV,3,3,09,30,09,288,*48
PRMC,052403.393,A,2409.0934,N,12039.9425,E,0.00,,050307,,,A*7A
$GPGGA,052404.393,2409.0959,N,12039.9419,E,1,03,44.2,0.0,M,,,,0000*36
$GPGSA,A,2,10,04,13,,,,,,,,,,50.0,44.2,50.0*06
$GPRMC,052404.393,A,2409.0959,N,12039.9419,E,0.00,,050307,,,A*79
$GPGGA,052405.392,2409.0968,N,12039.9416,E,1,03,44.2,0.0,M,,,,0000*3B
$GPGSA,A,2,10,04,13,,,,,,,,,,50.0,44.2,50.0*06
$GPRMC,052405.392,A,2409.0968,N,12039.9416,E,0.00,,050307,,,A*74
$GPGGA,052406.392,2409.0950,N,12039.9423,E,1,03,44.2,0.0,M,,,,0000*35
$GPGSA,A,2,10,04,13,,,,,,,,,,50.0,44.2,50.0*06
$GPRMC,052406.392,A,2409.0950,N,12039.9423,E,0.00,,050307,,,A*7A
$GPGGA,052407.392,2409.0932,N,12039.9428,E,1,03,44.2,0.0,M,,,,0000*3B
$GPGSA,A,2,10,04,13,,,,,,,,,,50.0,44.2,50.0*06
$GPRMC,052407.392,A,2409.0932,N,12039.9428,E,0.00,,050307,,,A*74
$GPGGA,052408.392,,,,,0,00,50.0,,M,,,,0000*2D
$GPGSA,A,1,,,,,,,,,,,,,50.0,50.0,50.0*05
$GPGSV,3,1,09,07,75,211,,10,55,286,45,17,49,353,26,04,43,066,44*70
$GPGSV,3,2,09,13,18,041,38,31,16,318,,26,15,196,,27,10,125,30*74
$GPGSV,3,3,09,30,09,288,*48
,N*4F
$GPGGA,052409.392,2409.0914,N,12039.9434,E,1,03,44.1,0.0,M,,,,0000*3F
$GPGSA,A,2,10,04,13,,,,,,,,,,50.0,44.1,50.0*05
$GPRMC,052409.392,A,2409.0914,N,12039.9434,E,0.00,,050307,,,A*73
$GPGGA,052410.392,2409.0923,N,12039.9426,E,1,03,44.1,0.0,M,,,,0000*30
$GPGSA,A,2,10,04,13,,,,,,,,,,50.0,44.1,50.0*05
$GPRMC,052410.392,A,2409.0923,N,12039.9426,E,0.00,,050307,,,A*7C
$GPGGA,052411.392,2409.0947,N,12039.9419,E,1,03,44.1,0.0,M,,,,0000*3F
$GPGSA,A,2,10,04,13,,,,,,,,,,50.0,44.1,50.0*05
$GPRMC,052411.392,A,2409.0947,N,12039.9419,E,0.00,,050307,,,A*73
$GPGGA,052412.392,2409.0962,N,12039.9417,E,1,03,44.1,0.0,M,,,,0000*35
$GPGSA,A,2,10,04,13,,,,,,,,,,50.0,44.1,50.0*05
$GPRMC,052412.392,A,2409.0962,N,12039.9417,E,0.00,,050307,,,A*79
$GPGGA,052413.392,2409.0970,N,12039.9418,E,1,03,44.1,0.0,M,,,,0000*38
$GPGSA,A,2,10,04,13,,,,,,,,,,50.0,44.1,50.0*05
$GPGSV,3,1,10,07,75,210,,10,55,286,45,02,53,356,44,17,49,353,25*7D
$GPGSV,3,2,10,04,43,067,44,13,18,041,38,31,17,318,,26,16,196,*7D
,10,125,22,30,09,288,*72
$GPRMC,052413.392,A,2409.0970,N,12039.9418,E,0.00,,050307,,,A*74
$GPGGA,052414.392,2409.0966,N,12039.9413,E,1,03,44.1,0.0,M,,,,0000*33
$GPGSA,A,2,10,04,13,,,,,,,,,,50.0,44.1,50.0*05
$GPRMC,052414.392,A,2409.0966,N,12039.9413,E,0.00,,050307,,,A*7F
$GPGGA,052415.392,2409.0944,N,12039.9419,E,1,03,44.1,0.0,M,,,,0000*38
$GPGSA,A,2,10,04,13,,,,,,,,,,50.0,44.1,50.0*05
$GPRMC,052415.392,A,2409.0944,N,12039.9419,E,0.00,,050307,,,A*74
$GPGGA,052416.392,2409.0926,N,12039.9426,E,1,03,44.1,0.0,M,,,,0000*33
$GPGSA,A,2,10,04,13,,,,,,,,,,50.0,44.1,50.0*05
$GPRMC,052416.392,A,2409.0926,N,12039.9426,E,0.00,,050307,,,A*7F
$GPGGA,052417.392,2409.0916,N,12039.9425,E,1,03,44.0,0.0,M,,,,0000*33
$GPGSA,A,2,10,04,13,,,,,,,,,,50.0,44.0,50.0*04
$GPRMC,052417.392,A,2409.0916,N,12039.9425,E,0.00,,050307,,,A*7E
$GPGGA,052418.392,2409.0923,N,12039.9427,E,1,03,44.1,0.0,M,,,,0000*39
$GPGSA,A,2,10,04,13,,,,,,,,,,50.0,44.1,50.0*05
$GPGSV,3,1,10,07,75,210,,10,55,286,45,02,53,356,43,17,49,353,26*79
$GPGSV,3,2,10,04,43,067,43,13,18,041,38,31,17,318,,26,16,196,*7A
,27,10,125,29,30,09,288,*79
$GPRMC,052418.392,A,2409.0923,N,12039.9427,E,0.00,,050307,,,A*75
$GPGGA,052419.392,2409.0926,N,12039.9426,E,1,03,44.0,0.0,M,,,,0000*3D
$GPGSA,A,2,10,04,13,,,,,,,,,,50.0,44.0,50.0*04
$GPRMC,052419.392,A,2409.0926,N,12039.9426,E,0.00,,050307,,,A*70
$GPGGA,052420.392,2409.0943,N,12039.9419,E,1,03,44.0,0.0,M,,,,0000*38
$GPGSA,A,2,10,04,13,,,,,,,,,,50.0,44.0,50.0*04
$GPRMC,052420.392,A,2409.0943,N,12039.9419,E,0.00,,050307,,,A*75
$GPGGA,052421.392,2409.0955,N,12039.9417,E,1,03,44.0,0.0,M,,,,0000*30
$GPGSA,A,2,10,04,13,,,,,,,,,,50.0,44.0,50.0*04
$GPRMC,052421.392,A,2409.0955,N,12039.9417,E,0.00,,050307,,,A*7D
$GPGGA,052422.391,2409.0955,N,12039.9415,E,1,03,44.0,0.0,M,,,,0000*32
$GPGSA,A,2,10,04,13,,,,,,,,,,50.0,44.0,50.0*04
$GPRMC,052422.391,A,2409.0955,N,12039.9415,E,0.00,,050307,,,A*7F
$GPGGA,052423.391,2409.0924,N,12039.9424,E,1,03,44.0,0.0,M,,,,0000*37
$GPGSA,A,2,10,04,13,,,,,,,,,,50.0,44.0,50.0*04
$GPGSV,3,1,10,07,75,210,,10,55,286,45,02,53,356,44,17,49,353,24*7C
$GPGSV,3,2,10,04,43,067,44,13,18,041,38,31,17,318,,26,16,196,*7D
0,125,27,30,09,288,*77
$GPRMC,052423.391,A,2409.0924,N,12039.9424,E,0.00,,050307,,,A*7A
$GPGGA,052424.391,2409.0930,N,12039.9421,E,1,03,44.0,0.0,M,,,,0000*30
$GPGSA,A,2,10,04,13,,,,,,,,,,50.0,44.0,50.0*04
$GPRMC,052424.391,A,2409.0930,N,12039.9421,E,0.00,,050307,,,A*7D
$GPGGA,052425.391,2409.0917,N,12039.9424,E,1,03,44.0,0.0,M,,,,0000*31
$GPGSA,A,2,10,04,13,,,,,,,,,,50.0,44.0,50.0*04
$GPRMC,052425.391,A,2409.0917,N,12039.9424,E,0.00,,050307,,,A*7C
$GPGGA,052426.391,2409.0929,N,12039.9423,E,1,03,44.0,0.0,M,,,,0000*38
$GPGSA,A,2,10,04,13,,,,,,,,,,50.0,44.0,50.0*04
$GPRMC,052426.391,A,2409.0929,N,12039.9423,E,0.00,,050307,,,A*75
$GPGGA,052427.391,2409.0939,N,12039.9421,E,1,03,44.0,0.0,M,,,,0000*3A
$GPGSA,A,2,10,04,13,,,,,,,,,,50.0,44.0,50.0*04
$GPRMC,052427.391,A,2409.0939,N,12039.9421,E,0.00,,050307,,,A*77
$GPGGA,052428.391,2409.0918,N,12039.9423,E,1,03,43.9,0.0,M,,,,0000*3A
$GPGSA,A,2,10,04,13,,,,,,,,,,50.0,43.9,50.0*0A
$GPGSV,3,1,10,07,75,210,,10,55,286,45,02,53,356,44,17,49,353,25*7D
$GPGSV,3,2,10,04,43,067,44,13,18,041,38,31,17,318,,26,16,196,*7D
10,125,28,30,09,288,*78
$GPRMC,052428.391,A,2409.0918,N,12039.9423,E,0.00,,050307,,,A*79
$GPGGA,052429.391,2409.0945,N,12039.9421,E,1,03,43.9,0.0,M,,,,0000*31
$GPGSA,A,2,10,04,13,,,,,,,,,,50.0,43.9,50.0*0A
$GPRMC,052429.391,A,2409.0945,N,12039.9421,E,0.00,,050307,,,A*72
$GPGGA,052430.391,2409.0951,N,12039.9417,E,1,03,43.9,0.0,M,,,,0000*39
$GPGSA,A,2,10,04,13,,,,,,,,,,50.0,43.9,50.0*0A
$GPRMC,052430.391,A,2409.0951,N,12039.9417,E,0.00,,050307,,,A*7A
$GPGGA,052431.391,2409.0958,N,12039.9417,E,1,03,43.9,0.0,M,,,,0000*31
$GPGSA,A,2,10,04,13,,,,,,,,,,50.0,43.9,50.0*0A
$GPRMC,052431.391,A,2409.0958,N,12039.9417,E,0.00,,050307,,,A*72
$GPGGA,052432.391,2409.0939,N,12039.9421,E,1,03,43.9,0.0,M,,,,0000*30
$GPGSA,A,2,10,04,13,,,,,,,,,,50.0,43.9,50.0*0A
$GPRMC,052432.391,A,2409.0939,N,12039.9421,E,0.00,,050307,,,A*73
$GPGGA,052433.391,2409.0943,N,12039.9416,E,1,03,43.9,0.0,M,,,,0000*38
$GPGSA,A,2,10,04,13,,,,,,,,,,50.0,43.9,50.0*0A
$GPGSV,3,1,10,07,75,210,,10,55,286,44,02,53,356,44,17,49,353,29*70
$GPGSV,3,2,10,04,43,067,43,13,18,041,38,31,17,318,,26,16,196,*7A
0,125,30,30,09,288,*71
$GPRMC,052433.391,A,2409.0943,N,12039.9416,E,0.00,,050307,,,A*7B
$GPGGA,052434.391,2409.0922,N,12039.9422,E,1,03,43.9,0.0,M,,,,0000*3F
$GPGSA,A,2,10,04,13,,,,,,,,,,50.0,43.9,50.0*0A
$GPRMC,052434.391,A,2409.0922,N,12039.9422,E,0.00,,050307,,,A*7C
$GPGGA,052435.391,2409.0918,N,12039.9424,E,1,03,43.9,0.0,M,,,,0000*31
$GPGSA,A,2,10,04,13,,,,,,,,,,50.0,43.9,50.0*0A
$GPRMC,052435.391,A,2409.0918,N,12039.9424,E,0.00,,050307,,,A*72
$GPGGA,052436.391,2409.1926,N,12039.9439,E,1,04,3.3,203.7,M,,,,0000*0D
$GPGSA,A,3,10,04,02,13,,,,,,,,,5.3,3.3,4.1*34
$GPRMC,052436.391,A,2409.1926,N,12039.9439,E,0.11,196.09,050307,,,A*68
$GPGGA,052437.391,2409.1926,N,12039.9439,E,1,04,3.3,203.7,M,,,,0000*0C
$GPGSA,A,3,10,04,02,13,,,,,,,,,5.3,3.3,4.1*34
$GPRMC,052437.391,A,2409.1926,N,12039.9439,E,0.00,,050307,,,A*70
$GPGGA,052438.390,2409.1925,N,12039.9438,E,1,04,3.3,205.9,M,,,,0000*08
$GPGSA,A,3,10,04,02,13,,,,,,,,,5.3,3.3,4.1*34
$GPGSV,3,1,10,07,75,210,,10,55,286,45,02,53,356,43,17,49,353,27*78
PGSV,3,2,10,04,43,067,43,13,18,041,38,31,17,318,,26,16,196,*7A
$GPGSV,3,3,10,27,10,125,23,30,09,288,*73
$GPRMC,052438.390,A,2409.1925,N,12039.9438,E,0.11,202.68,050307,,,A*6C
$GPGGA,052439.390,2409.1925,N,12039.9438,E,1,04,3.3,205.9,M,,,,0000*09
$GPGSA,A,3,10,04,02,13,,,,,,,,,5.3,3.3,4.1*34
$GPRMC,052439.390,A,2409.1925,N,12039.9438,E,0.00,,050307,,,A*7D
$GPGGA,052440.390,2409.1925,N,12039.9438,E,1,04,3.3,205.9,M,,,,0000*07
$GPGSA,A,3,10,04,02,13,,,,,,,,,5.3,3.3,4.1*34
$GPRMC,052440.390,A,2409.1925,N,12039.9438,E,0.00,,050307,,,A*73
$GPGGA,052441.390,2409.1925,N,12039.9438,E,1,04,3.3,205.9,M,,,,0000*06
$GPGSA,A,3,10,04,02,13,,,,,,,,,5.3,3.3,4.1*34
$GPRMC,052441.390,A,2409.1925,N,12039.9438,E,0.00,,050307,,,A*72
$GPGGA,052442.390,2409.1925,N,12039.9438,E,1,04,3.3,205.9,M,,,,0000*05
$GPGSA,A,3,10,04,02,13,,,,,,,,,5.3,3.3,4.1*34
$GPRMC,052442.390,A,2409.1925,N,12039.9438,E,0.00,,050307,,,A*71
$GPGGA,052443.390,2409.1925,N,12039.9438,E,1,04,3.3,205.9,M,,,,0000*04
$GPGSA,A,3,10,04,02,13,,,,,,,,,5.3,3.3,4.1*34
$GPGSV,3,1,10,07,75,210,,10,55,287,45,02,53,356,43,17,49,353,25*7B
$GPGSV,3,2,10,04,43,067,44,13,18,040,38,31,17,318,,26,13,197,*78
30,09,288,,27,08,089,29*77
$GPRMC,052443.390,A,2409.1925,N,12039.9438,E,0.00,,050307,,,A*70
$GPGGA,052444.390,2409.1925,N,12039.9438,E,1,04,3.3,205.9,M,,,,0000*03
$GPGSA,A,3,10,04,02,13,,,,,,,,,5.3,3.3,4.1*34
$GPRMC,052444.390,A,2409.1925,N,12039.9438,E,0.00,,050307,,,A*77
$GPGGA,052445.390,2409.1925,N,12039.9438,E,1,04,3.3,205.9,M,,,,0000*02
$GPGSA,A,3,10,04,02,13,,,,,,,,,5.3,3.3,4.1*34
$GPRMC,052445.390,A,2409.1925,N,12039.9438,E,0.00,,050307,,,A*76
$GPGGA,052446.390,2409.1925,N,12039.9438,E,1,04,3.3,205.9,M,,,,0000*01
$GPGSA,A,3,10,04,02,13,,,,,,,,,5.3,3.3,4.1*34
$GPRMC,052446.390,A,2409.1925,N,12039.9438,E,0.00,,050307,,,A*75
$GPGGA,052447.390,2409.1925,N,12039.9438,E,1,04,3.3,205.9,M,,,,0000*00
$GPGSA,A,3,10,04,02,13,,,,,,,,,5.3,3.3,4.1*34
$GPRMC,052447.390,A,2409.1925,N,12039.9438,E,0.00,,050307,,,A*74
$GPGGA,052448.390,2409.1925,N,12039.9438,E,1,04,3.3,205.9,M,,,,0000*0F
$GPGSA,A,3,10,04,02,13,,,,,,,,,5.3,3.3,4.1*34
$GPGSV,3,1,10,07,75,210,,10,55,287,45,02,53,356,44,17,49,354,25*7B
$GPGSV,3,2,10,04,43,067,44,13,17,040,38,31,17,318,,26,14,197,*70
10,30,09,287,,27,08,089,27*76
$GPRMC,052448.390,A,2409.1925,N,12039.9438,E,0.00,,050307,,,A*7B
$GPGGA,052449.390,2409.1925,N,12039.9438,E,1,04,3.3,205.9,M,,,,0000*0E
$GPGSA,A,3,10,04,02,13,,,,,,,,,5.3,3.3,4.1*34
$GPRMC,052449.390,A,2409.1925,N,12039.9438,E,0.00,,050307,,,A*7A
$GPGGA,052450.390,2409.1925,N,12039.9438,E,1,04,3.3,205.9,M,,,,0000*06
$GPGSA,A,3,10,04,02,13,,,,,,,,,5.3,3.3,4.1*34
$GPRMC,052450.390,A,2409.1925,N,12039.9438,E,0.00,,050307,,,A*72
$GPGGA,052451.390,2409.1925,N,12039.9438,E,1,04,3.3,205.9,M,,,,0000*07
$GPGSA,A,3,10,04,02,13,,,,,,,,,5.3,3.3,4.1*34
$GPRMC,052451.390,A,2409.1925,N,12039.9438,E,0.00,,050307,,,A*73
$GPGGA,052452.390,2409.1925,N,12039.9438,E,1,04,3.3,205.9,M,,,,0000*04
$GPGSA,A,3,10,04,02,13,,,,,,,,,5.3,3.3,4.1*34
$GPRMC,052452.390,A,2409.1925,N,12039.9438,E,0.00,,050307,,,A*70
$GPGGA,052453.390,2409.1925,N,12039.9438,E,1,04,3.3,205.9,M,,,,0000*05
$GPGSA,A,3,10,04,02,13,,,,,,,,,5.3,3.3,4.1*34
$GPGSV,3,1,10,07,75,210,,10,55,287,45,02,53,356,44,17,49,354,26*78
$GPGSV,3,2,10,04,43,067,44,13,17,040,38,31,17,318,,26,14,197,*70
0,30,09,287,,27,08,089,26*77
$GPRMC,052453.390,A,2409.1925,N,12039.9438,E,0.00,,050307,,,A*71
$GPGGA,052454.390,2409.1925,N,12039.9438,E,1,04,3.3,205.9,M,,,,0000*02
$GPGSA,A,3,10,04,02,13,,,,,,,,,5.3,3.3,4.1*34
$GPRMC,052454.390,A,2409.1925,N,12039.9438,E,0.00,,050307,,,A*76
$GPGGA,052455.389,2409.1925,N,12039.9438,E,1,04,3.3,205.9,M,,,,0000*0B
$GPGSA,A,3,10,04,02,13,,,,,,,,,5.3,3.3,4.1*34
$GPRMC,052455.389,A,2409.1925,N,12039.9438,E,0.00,,050307,,,A*7F
$GPGGA,052456.389,2409.1925,N,12039.9438,E,1,04,3.3,205.9,M,,,,0000*08
$GPGSA,A,3,10,04,02,13,,,,,,,,,5.3,3.3,4.1*34
$GPRMC,052456.389,A,2409.1925,N,12039.9438,E,0.00,,050307,,,A*7C
$GPGGA,052457.389,2409.1925,N,12039.9438,E,1,04,3.3,205.9,M,,,,0000*09
$GPGSA,A,3,10,04,02,13,,,,,,,,,5.3,3.3,4.1*34
$GPRMC,052457.389,A,2409.1925,N,12039.9438,E,0.00,,050307,,,A*7D
$GPGGA,052458.389,2409.1925,N,12039.9438,E,1,04,3.3,205.9,M,,,,0000*06
$GPGSA,A,3,10,04,02,13,,,,,,,,,5.3,3.3,4.1*34
$GPGSV,3,1,10,07,75,210,,10,55,287,45,02,53,356,44,17,49,354,26*78
$GPGSV,3,2,10,04,43,067,44,13,17,040,38,31,17,318,,26,14,197,*70
,10,30,09,287,,27,08,089,28*79
$GPRMC,052458.389,A,2409.1925,N,12039.9438,E,0.00,,050307,,,A*72
$GPGGA,052459.389,2409.1925,N,12039.9438,E,1,04,3.3,205.9,M,,,,0000*07
$GPGSA,A,3,10,04,02,13,,,,,,,,,5.3,3.3,4.1*34
$GPRMC,052459.389,A,2409.1925,N,12039.9438,E,0.00,,050307,,,A*73
$GPGGA,052500.389,2409.1925,N,12039.9438,E,1,04,3.3,205.9,M,,,,0000*0A
$GPGSA,A,3,10,04,02,13,,,,,,,,,5.3,3.3,4.1*34
$GPRMC,052500.389,A,2409.1925,N,12039.9438,E,0.00,,050307,,,A*7E
$GPGGA,052501.389,2409.1925,N,12039.9438,E,1,04,3.3,205.9,M,,,,0000*0B
$GPGSA,A,3,10,04,02,13,,,,,,,,,5.3,3.3,4.1*34
$GPRMC,052501.389,A,2409.1925,N,12039.9438,E,0.00,,050307,,,A*7F
$GPGGA,052502.389,2409.1925,N,12039.9438,E,1,04,3.3,205.9,M,,,,0000*08
$GPGSA,A,3,10,04,02,13,,,,,,,,,5.3,3.3,4.1*34
$GPRMC,052502.389,A,2409.1925,N,12039.9438,E,0.00,,050307,,,A*7C
$GPGGA,052503.389,2409.1925,N,12039.9438,E,1,04,3.3,205.9,M,,,,0000*09
$GPGSA,A,3,10,04,02,13,,,,,,,,,5.3,3.3,4.1*34
$GPGSV,3,1,10,07,75,210,,10,55,287,45,02,53,356,43,17,49,354,26*7F
$GPGSV,3,2,10,04,43,067,44,13,17,040,38,31,17,318,,26,14,197,*70
10,30,09,287,,27,08,089,24*75
$GPRMC,052503.389,A,2409.1925,N,12039.9438,E,0.00,,050307,,,A*7D
$GPGGA,052504.389,2409.1925,N,12039.9438,E,1,04,3.3,205.9,M,,,,0000*0E
$GPGSA,A,3,10,04,02,13,,,,,,,,,5.3,3.3,4.1*34
$GPRMC,052504.389,A,2409.1925,N,12039.9438,E,0.00,,050307,,,A*7A
$GPGGA,052505.389,2409.1925,N,12039.9438,E,1,04,3.3,205.9,M,,,,0000*0F
$GPGSA,A,3,10,04,02,13,,,,,,,,,5.3,3.3,4.1*34
$GPRMC,052505.389,A,2409.1925,N,12039.9438,E,0.00,,050307,,,A*7B
$GPGGA,052506.389,2409.1925,N,12039.9438,E,1,04,3.3,205.9,M,,,,0000*0C
$GPGSA,A,3,10,04,02,13,,,,,,,,,5.3,3.3,4.1*34
$GPRMC,052506.389,A,2409.1925,N,12039.9438,E,0.00,,050307,,,A*78
$GPGGA,052507.389,2409.1925,N,12039.9438,E,1,04,3.3,205.9,M,,,,0000*0D
$GPGSA,A,3,10,04,02,13,,,,,,,,,5.3,3.3,4.1*34
$GPRMC,052507.389,A,2409.1925,N,12039.9438,E,0.00,,050307,,,A*79
$GPGGA,052508.389,2409.1925,N,12039.9438,E,1,04,3.3,205.9,M,,,,0000*02
$GPGSA,A,3,10,04,02,13,,,,,,,,,5.3,3.3,4.1*34
$GPGSV,3,1,10,07,75,210,,10,55,287,45,02,53,356,43,17,49,354,27*7E
$GPGSV,3,2,10,04,43,067,44,13,17,040,38,31,17,318,,26,14,197,*70
,30,09,287,,27,08,089,28*79
$GPRMC,052508.389,A,2409.1925,N,12039.9438,E,0.00,,050307,,,A*76
$GPGGA,052509.389,2409.1925,N,12039.9438,E,1,04,3.3,205.9,M,,,,0000*03
$GPGSA,A,3,10,04,02,13,,,,,,,,,5.3,3.3,4.1*34
$GPRMC,052509.389,A,2409.1925,N,12039.9438,E,0.00,,050307,,,A*77
$GPGGA,052510.389,2409.1925,N,12039.9438,E,1,04,3.3,205.9,M,,,,0000*0B
$GPGSA,A,3,10,04,02,13,,,,,,,,,5.3,3.3,4.1*34
$GPRMC,052510.389,A,2409.1925,N,12039.9438,E,0.00,,050307,,,A*7F
$GPGGA,052511.388,2409.1925,N,12039.9438,E,1,04,3.3,205.9,M,,,,0000*0B
$GPGSA,A,3,10,04,02,13,,,,,,,,,5.3,3.3,4.1*34
$GPRMC,052511.388,A,2409.1925,N,12039.9438,E,0.00,,050307,,,A*7F
$GPGGA,052512.388,2409.1925,N,12039.9438,E,1,04,3.3,205.9,M,,,,0000*08
$GPGSA,A,3,10,04,02,13,,,,,,,,,5.3,3.3,4.1*34
$GPRMC,052512.388,A,2409.1925,N,12039.9438,E,0.00,,050307,,,A*7C
$GPGGA,052513.388,2409.1925,N,12039.9438,E,1,04,3.3,205.9,M,,,,0000*09
$GPGSA,A,3,10,04,02,13,,,,,,,,,5.3,3.3,4.1*34
$GPGSV,3,1,10,07,75,210,,10,55,287,45,02,53,356,44,17,49,354,28*76
$GPGSV,3,2,10,04,43,067,44,13,17,040,38,31,17,318,,26,14,197,*70
3,10,30,09,287,,27,08,089,27*76
$GPRMC,052513.388,A,2409.1925,N,12039.9438,E,0.00,,050307,,,A*7D
$GPGGA,052514.388,2409.1925,N,12039.9438,E,1,04,3.3,205.9,M,,,,0000*0E
$GPGSA,A,3,10,04,02,13,,,,,,,,,5.3,3.3,4.1*34
$GPRMC,052514.388,A,2409.1925,N,12039.9438,E,0.00,,050307,,,A*7A
$GPGGA,052515.388,2409.1925,N,12039.9438,E,1,04,3.3,205.9,M,,,,0000*0F
$GPGSA,A,3,10,04,02,13,,,,,,,,,5.3,3.3,4.1*34
$GPRMC,052515.388,A,2409.1925,N,12039.9438,E,0.00,,050307,,,A*7B
$GPGGA,052516.388,2409.1925,N,12039.9438,E,1,04,3.3,205.9,M,,,,0000*0C
$GPGSA,A,3,10,04,02,13,,,,,,,,,5.3,3.3,4.1*34
$GPRMC,052516.388,A,2409.1925,N,12039.9438,E,0.00,,050307,,,A*78
$GPGGA,052517.388,2409.1925,N,12039.9438,E,1,04,3.3,205.9,M,,,,0000*0D
$GPGSA,A,3,10,04,02,13,,,,,,,,,5.3,3.3,4.1*34
$GPRMC,052517.388,A,2409.1925,N,12039.9438,E,0.00,,050307,,,A*79
