c&∆Vf∆f∆F6∆F∆F∆vV∆6Ü∆&f∆ñ∆ñv∆¶vV÷$GPGSV,3,2,12,12,16,257,,17,16,152,24,13,13,038,31,05,11,262,*74
$GPGSV,3,3,12,27,09,083,38,08,09,110,,30,07,286,,06,05,320,*7D
$GPRMC,053847.339,A,2409.1951,N,12039.9452,E,0.00,,050307,,,A*75
$GPGGA,053848.339,2409.1951,N,12039.9452,E,1,06,1.6,204.6,M,,,,0000*05
$GPGSA,A,3,10,17,04,02,13,27,,,,,,,2.8,1.6,2.3*38
7A
$GPGGA,053849.339,2409.1951,N,12039.9452,E,1,06,1.6,204.6,M,,,,0000*04
$GPGSA,A,3,10,17,04,02,13,27,,,,,,,2.8,1.6,2.3*38
*7B
$GPGGA,053850.339,2409.1951,N,12039.9452,E,1,06,1.6,204.6,M,,,,0000*0C
$GPGSA,A,3,10,17,04,02,13,27,,,,,,,2.8,1.6,2.3*38
3
$GPGGA,053851.339,2409.1951,N,12039.9452,E,1,06,1.6,204.6,M,,,,0000*0D
$GPGSA,A,3,10,17,04,02,13,27,,,,,,,2.8,1.6,2.3*38
*72
$GPGGA,053852.339,2409.1951,N,12039.9452,E,1,06,1.6,204.6,M,,,,0000*0E
$GPGSA,A,3,10,17,04,02,13,27,,,,,,,2.8,1.6,2.3*38
,197,*75
$GPGSV,3,2,12,12,16,257,,17,16,152,34,13,13,038,32,05,11,262,*76
$GPGSV,3,3,12,27,09,083,33,08,09,110,,30,07,286,,06,05,320,*76
$GPRMC,053852.339,A,2409.1951,N,12039.9452,E,0.00,,050307,,,A*71
$GPGGA,053853.339,2409.1951,N,12039.9452,E,1,06,1.6,204.6,M,,,,0000*0F
$GPGSA,A,3,10,17,04,02,13,27,,,,,,,2.8,1.6,2.3*38
0
$GPGGA,053854.339,2409.1951,N,12039.9452,E,1,06,1.6,204.6,M,,,,0000*08
$GPGSA,A,3,10,17,04,02,13,27,,,,,,,2.8,1.6,2.3*38
77
$GPGGA,053855.339,2409.1951,N,12039.9452,E,1,06,1.6,204.6,M,,,,0000*09
$GPGSA,A,3,10,17,04,02,13,27,,,,,,,2.8,1.6,2.3*38
6
$GPGGA,053856.339,2409.1951,N,12039.9452,E,1,06,1.6,204.6,M,,,,0000*0A
$GPGSA,A,3,10,17,04,02,13,27,,,,,,,2.8,1.6,2.3*38
75
$GPGGA,053857.339,2409.1951,N,12039.9452,E,1,06,1.6,204.6,M,,,,0000*0B
$GPGSA,A,3,10,17,04,02,13,27,,,,,,,2.8,1.6,2.3*38
,197,*75
$GPGSV,3,2,12,12,16,257,,17,16,152,31,13,13,038,33,05,11,262,*72
$GPGSV,3,3,12,27,09,083,38,08,09,110,,30,07,286,,06,05,320,*7D
$GPRMC,053857.339,A,2409.1951,N,12039.9452,E,0.00,,050307,,,A*74
$GPGGA,053858.339,2409.1951,N,12039.9452,E,1,06,1.6,204.6,M,,,,0000*04
$GPGSA,A,3,10,17,04,02,13,27,,,,,,,2.8,1.6,2.3*38
,,A*7B
$GPGGA,053859.339,2409.1951,N,12039.9452,E,1,06,1.6,204.6,M,,,,0000*05
$GPGSA,A,3,10,17,04,02,13,27,,,,,,,2.8,1.6,2.3*38
7A
$GPGGA,053900.338,2409.1951,N,12039.9452,E,1,06,1.6,204.6,M,,,,0000*09
$GPGSA,A,3,10,17,04,02,13,27,,,,,,,2.8,1.6,2.3*38
76
$GPGGA,053901.338,2409.1951,N,12039.9452,E,1,06,1.6,204.6,M,,,,0000*08
$GPGSA,A,3,10,17,04,02,13,27,,,,,,,2.8,1.6,2.3*38
,A*77
$GPGGA,053902.338,2409.1951,N,12039.9452,E,1,06,1.6,204.6,M,,,,0000*0B
$GPGSA,A,3,10,17,04,02,13,27,,,,,,,2.8,1.6,2.3*38
7,*75
$GPGSV,3,2,12,12,16,257,,17,16,152,30,13,13,038,33,05,11,262,*73
$GPGSV,3,3,12,27,09,083,33,08,09,110,,30,07,286,,06,05,320,*76
$GPRMC,053902.338,A,2409.1951,N,12039.9452,E,0.00,,050307,,,A*74
$GPGGA,053903.338,2409.1951,N,12039.9452,E,1,06,1.6,204.6,M,,,,0000*0A
$GPGSA,A,3,10,17,04,02,13,27,,,,,,,2.8,1.6,2.3*38
A*75
$GPGGA,053904.338,2409.1951,N,12039.9452,E,1,06,1.6,204.6,M,,,,0000*0D
$GPGSA,A,3,10,17,04,02,13,27,,,,,,,2.8,1.6,2.3*38

$GPGGA,053905.338,2409.1951,N,12039.9452,E,1,06,1.6,204.6,M,,,,0000*0C
$GPGSA,A,3,10,17,04,02,13,27,,,,,,,2.8,1.6,2.3*38
A*73
$GPGGA,053906.338,2409.1951,N,12039.9452,E,1,06,1.6,204.6,M,,,,0000*0F
$GPGSA,A,3,10,17,04,02,13,27,,,,,,,2.8,1.6,2.3*38
*70
$GPGGA,053907.338,2409.1951,N,12039.9452,E,1,06,1.6,204.6,M,,,,0000*0E
$GPGSA,A,3,10,17,04,02,13,27,,,,,,,2.8,1.6,2.3*38
*75
$GPGSV,3,2,12,12,16,257,,17,16,152,31,13,13,038,33,05,11,262,*72
$GPGSV,3,3,12,27,09,083,37,08,09,110,,30,07,286,,06,05,320,*72
$GPRMC,053907.338,A,2409.1951,N,12039.9452,E,0.00,,050307,,,A*71
$GPGGA,053908.338,2409.1951,N,12039.9452,E,1,06,1.6,204.6,M,,,,0000*01
$GPGSA,A,3,10,17,04,02,13,27,,,,,,,2.8,1.6,2.3*38
*7E
$GPGGA,053909.338,2409.1951,N,12039.9452,E,1,06,1.6,204.6,M,,,,0000*00
$GPGSA,A,3,10,17,04,02,13,27,,,,,,,2.8,1.6,2.3*38

$GPGGA,053910.338,2409.1951,N,12039.9452,E,1,06,1.6,204.6,M,,,,0000*08
$GPGSA,A,3,10,17,04,02,13,27,,,,,,,2.8,1.6,2.3*38
*77
$GPGGA,053911.338,2409.1951,N,12039.9452,E,1,06,1.6,204.6,M,,,,0000*09
$GPGSA,A,3,10,17,04,02,13,27,,,,,,,2.8,1.6,2.3*38
,A*76
$GPGGA,053912.338,2409.1951,N,12039.9452,E,1,06,1.6,204.6,M,,,,0000*0A
$GPGSA,A,3,10,17,04,02,13,27,,,,,,,2.8,1.6,2.3*38
,*7C
$GPGSV,3,2,12,12,16,257,,17,16,152,31,13,12,037,33,05,11,262,*7C
$GPGSV,3,3,12,27,09,083,34,08,09,110,,30,07,286,,06,06,320,*72
$GPRMC,053912.338,A,2409.1951,N,12039.9452,E,0.00,,050307,,,A*75
$GPGGA,053913.338,2409.1951,N,12039.9452,E,1,06,1.6,204.6,M,,,,0000*0B
$GPGSA,A,3,10,17,04,02,13,27,,,,,,,2.8,1.6,2.3*38
A*74
$GPGGA,053914.338,2409.1951,N,12039.9452,E,1,06,1.6,204.6,M,,,,0000*0C
$GPGSA,A,3,10,17,04,02,13,27,,,,,,,2.8,1.6,2.3*38
A*73
$GPGGA,053915.338,2409.1951,N,12039.9452,E,1,06,1.6,204.6,M,,,,0000*0D
$GPGSA,A,3,10,17,04,02,13,27,,,,,,,2.8,1.6,2.3*38
$GPRMC,053915.338,A,2409.1951,N,12039.9452,E,0.00,,050307,,,A*72
$GPGGA,053916.338,2409.1951,N,12039.9452,E,1,06,1.6,204.6,M,,,,0000*0E
$GPGSA,A,3,10,17,04,02,13,27,,,,,,,2.8,1.6,2.3*38
71
$GPGGA,053917.337,2409.1951,N,12039.9452,E,1,06,1.6,204.6,M,,,,0000*00
$GPGSA,A,3,10,17,04,02,13,27,,,,,,,2.8,1.6,2.3*38
6,20,197,*7D
$GPGSV,3,2,12,12,16,257,,17,15,152,32,13,12,037,34,05,11,262,*7B
$GPGSV,3,3,12,27,09,083,38,08,09,110,,30,07,286,,06,06,320,*7E
$GPRMC,053917.337,A,2409.1951,N,12039.9452,E,0.00,,050307,,,A*7F
$GPGGA,053918.337,2409.1951,N,12039.9452,E,1,06,1.6,204.6,M,,,,0000*0F
$GPGSA,A,3,10,17,04,02,13,27,,,,,,,2.8,1.6,2.3*38
0
$GPGGA,053919.337,2409.1951,N,12039.9452,E,1,06,1.6,204.6,M,,,,0000*0E
$GPGSA,A,3,10,17,04,02,13,27,,,,,,,2.8,1.6,2.3*38
71
$GPGGA,053920.337,2409.1951,N,12039.9452,E,1,06,1.6,204.6,M,,,,0000*04
$GPGSA,A,3,10,17,04,02,13,27,,,,,,,2.8,1.6,2.3*38
$GPRMC,053920.337,A,2409.1951,N,12039.9452,E,0.00,,050307,,,A*7B
$GPGGA,053921.337,2409.1951,N,12039.9452,E,1,06,1.6,204.6,M,,,,0000*05
$GPGSA,A,3,10,17,04,02,13,27,,,,,,,2.8,1.6,2.3*38
$GPRMC,053921.337,A,2409.1951,N,12039.9452,E,0.00,,050307,,,A*7A
$GPGGA,053922.337,2409.1951,N,12039.9452,E,1,06,1.6,204.6,M,,,,0000*06
$GPGSA,A,3,10,17,04,02,13,27,,,,,,,2.8,1.6,2.3*38
97,*7C
$GPGSV,3,2,12,12,16,257,,17,15,152,31,13,12,037,32,05,11,262,*7E
$GPGSV,3,3,12,27,09,083,35,08,09,110,,30,07,286,,06,06,320,*73
$GPRMC,053922.337,A,2409.1951,N,12039.9452,E,0.00,,050307,,,A*79
$GPGGA,053923.337,2409.1951,N,12039.9452,E,1,06,1.6,204.6,M,,,,0000*07
$GPGSA,A,3,10,17,04,02,13,27,,,,,,,2.8,1.6,2.3*38
8
$GPGGA,053924.337,2409.1951,N,12039.9452,E,1,06,1.6,204.6,M,,,,0000*00
$GPGSA,A,3,10,17,04,02,13,27,,,,,,,2.8,1.6,2.3*38

$GPGGA,053925.337,2409.1951,N,12039.9452,E,1,06,1.6,204.6,M,,,,0000*01
$GPGSA,A,3,10,17,04,02,13,27,,,,,,,2.8,1.6,2.3*38
*7E
$GPGGA,053926.337,2409.1951,N,12039.9452,E,1,06,1.6,204.6,M,,,,0000*02
$GPGSA,A,3,10,17,04,02,13,27,,,,,,,2.8,1.6,2.3*38
D
$GPGGA,053927.337,2409.1951,N,12039.9452,E,1,06,1.6,204.6,M,,,,0000*03
$GPGSA,A,3,10,17,04,02,13,27,,,,,,,2.8,1.6,2.3*38
,*7C
$GPGSV,3,2,12,12,16,257,,17,15,152,31,13,12,037,34,05,11,262,*78
$GPGSV,3,3,12,27,09,083,37,08,09,110,,30,07,286,,06,06,320,*71
$GPRMC,053927.337,A,2409.1951,N,12039.9452,E,0.00,,050307,,,A*7C
$GPGGA,053928.337,2409.1951,N,12039.9452,E,1,06,1.6,204.6,M,,,,0000*0C
$GPGSA,A,3,10,17,04,02,13,27,,,,,,,2.8,1.6,2.3*38
3
$GPGGA,053929.337,2409.1951,N,12039.9452,E,1,06,1.6,204.6,M,,,,0000*0D
$GPGSA,A,3,10,17,04,02,13,27,,,,,,,2.8,1.6,2.3*38
A*72
$GPGGA,053930.337,2409.1951,N,12039.9452,E,1,06,1.6,204.6,M,,,,0000*05
$GPGSA,A,3,10,17,04,02,13,27,,,,,,,2.8,1.6,2.3*38
A
$GPGGA,053931.337,2409.1951,N,12039.9452,E,1,06,1.6,204.6,M,,,,0000*04
$GPGSA,A,3,10,17,04,02,13,27,,,,,,,2.8,1.6,2.3*38
B
$GPGGA,053932.337,2409.1951,N,12039.9452,E,1,06,1.6,204.6,M,,,,0000*07
$GPGSA,A,3,10,17,04,02,13,27,,,,,,,2.8,1.6,2.3*38
*7C
$GPGSV,3,2,12,12,16,257,,17,15,152,33,13,12,037,34,05,11,262,*7A
$GPGSV,3,3,12,27,09,083,36,08,09,110,,30,07,286,,06,06,320,*70
$GPRMC,053932.337,A,2409.1951,N,12039.9452,E,0.00,,050307,,,A*78
$GPGGA,053933.336,2409.1951,N,12039.9452,E,1,06,1.6,204.6,M,,,,0000*07
$GPGSA,A,3,10,17,04,02,13,27,,,,,,,2.8,1.6,2.3*38
8
$GPGGA,053934.336,2409.1951,N,12039.9452,E,1,06,1.6,204.6,M,,,,0000*00
$GPGSA,A,3,10,17,04,02,13,27,,,,,,,2.8,1.6,2.3*38
*7F
$GPGGA,053935.336,2409.1951,N,12039.9452,E,1,06,1.6,204.6,M,,,,0000*01
$GPGSA,A,3,10,17,04,02,13,27,,,,,,,2.8,1.6,2.3*38

$GPGGA,053936.336,2409.1951,N,12039.9452,E,1,06,1.6,204.6,M,,,,0000*02
$GPGSA,A,3,10,17,04,02,13,27,,,,,,,2.8,1.6,2.3*38
D
$GPGGA,053937.336,2409.1951,N,12039.9452,E,1,06,1.6,204.6,M,,,,0000*03
$GPGSA,A,3,10,17,04,02,13,27,,,,,,,2.8,1.6,2.3*38
*7F
$GPGSV,3,2,12,12,16,257,,17,15,152,33,13,12,037,32,05,11,262,*7C
$GPGSV,3,3,12,27,09,083,35,08,09,110,,30,07,286,,06,06,320,*73
$GPRMC,053937.336,A,2409.1951,N,12039.9452,E,0.00,,050307,,,A*7C
$GPGGA,053938.336,2409.1951,N,12039.9452,E,1,06,1.6,204.6,M,,,,0000*0C
$GPGSA,A,3,10,17,04,02,13,27,,,,,,,2.8,1.6,2.3*38
3
$GPGGA,053939.336,2409.1951,N,12039.9452,E,1,06,1.6,204.6,M,,,,0000*0D
$GPGSA,A,3,10,17,04,02,13,27,,,,,,,2.8,1.6,2.3*38
$GPRMC,053939.336,A,2409.1951,N,12039.9452,E,0.00,,050307,,,A*72
$GPGGA,053940.336,2409.1951,N,12039.9452,E,1,06,1.6,204.6,M,,,,0000*03
$GPGSA,A,3,10,17,04,02,13,27,,,,,,,2.8,1.6,2.3*38

$GPGGA,053941.336,2409.1951,N,12039.9452,E,1,06,1.6,204.6,M,,,,0000*02
$GPGSA,A,3,10,17,04,02,13,27,,,,,,,2.8,1.6,2.3*38
D
$GPGGA,053942.336,2409.1951,N,12039.9452,E,1,06,1.6,204.6,M,,,,0000*01
$GPGSA,A,3,10,17,04,02,13,27,,,,,,,2.8,1.6,2.3*38
*7F
$GPGSV,3,2,12,12,16,257,,17,15,152,27,13,12,037,29,05,11,262,*73
$GPGSV,3,3,12,27,09,083,38,08,09,110,,30,07,286,,06,06,320,*7E
$GPRMC,053942.336,A,2409.1951,N,12039.9452,E,0.00,,050307,,,A*7E
$GPGGA,053943.336,2409.1951,N,12039.9452,E,1,06,1.6,204.6,M,,,,0000*00
$GPGSA,A,3,10,17,04,02,13,27,,,,,,,2.8,1.6,2.3*38
*7F
$GPGGA,053944.336,2409.1951,N,12039.9452,E,1,06,1.6,204.6,M,,,,0000*07
$GPGSA,A,3,10,17,04,02,13,27,,,,,,,2.8,1.6,2.3*38
