ŸÊ&∆Êf∆&Êv¶6v÷$GPRMC,052812.378,A,2409.1925,N,12039.9438,E,0.00,,050307,,,A*7E
$GPGGA,052813.378,2409.1925,N,12039.9438,E,1,06,1.6,205.9,M,,,,0000*0E
$GPGSA,A,3,10,17,04,02,13,27,,,,,,,3.2,1.6,2.7*37
55,289,45,02,53,358,40,04,43,069,43,17,20,151,30*7E
$GPGSV,3,2,10,13,16,040,36,26,15,197,,05,12,267,17,27,08,088,27*79
$GPGSV,3,3,10,30,07,291,,08,07,115,*7C
$GPRMC,052813.378,A,2409.1925,N,12039.9438,E,0.00,,050307,,,A*7F
$GPGGA,052814.377,2409.1925,N,12039.9438,E,1,06,1.6,205.9,M,,,,0000*06
$GPGSA,A,3,10,17,04,02,13,27,,,,,,,3.2,1.6,2.7*37
77,A,2409.1925,N,12039.9438,E,0.00,,050307,,,A*77
$GPGGA,052815.377,2409.1925,N,12039.9438,E,1,06,1.6,205.9,M,,,,0000*07
$GPGSA,A,3,10,17,04,02,13,27,,,,,,,3.2,1.6,2.7*37
,A,2409.1925,N,12039.9438,E,0.00,,050307,,,A*76
$GPGGA,052816.377,2409.1925,N,12039.9438,E,1,06,1.6,205.9,M,,,,0000*04
$GPGSA,A,3,10,17,04,02,13,27,,,,,,,3.2,1.6,2.7*37
816.377,A,2409.1925,N,12039.9438,E,0.00,,050307,,,A*75
$GPGGA,052817.377,2409.1925,N,12039.9438,E,1,06,1.6,205.9,M,,,,0000*05
$GPGSA,A,3,10,17,04,02,13,27,,,,,,,3.2,1.6,2.7*37
817.377,A,2409.1925,N,12039.9438,E,0.00,,050307,,,A*74
$GPGGA,052818.377,2409.1925,N,12039.9438,E,1,06,1.6,205.9,M,,,,0000*0A
$GPGSA,A,3,10,17,04,02,13,27,,,,,,,3.2,1.6,2.7*37
0,10,55,289,45,02,53,358,40,04,43,069,43,17,20,151,27*78
$GPGSV,3,2,10,13,16,040,38,26,15,197,,05,12,267,21,27,08,088,27*72
$GPGSV,3,3,10,30,07,291,,08,07,115,*7C
$GPRMC,052818.377,A,2409.1925,N,12039.9438,E,0.00,,050307,,,A*7B
$GPGGA,052819.377,2409.1925,N,12039.9438,E,1,06,1.6,205.9,M,,,,0000*0B
$GPGSA,A,3,10,17,04,02,13,27,,,,,,,3.2,1.6,2.7*37
819.377,A,2409.1925,N,12039.9438,E,0.00,,050307,,,A*7A
$GPGGA,052820.377,2409.1925,N,12039.9438,E,1,06,1.6,205.9,M,,,,0000*01
$GPGSA,A,3,10,17,04,02,13,27,,,,,,,3.2,1.6,2.7*37
7,A,2409.1925,N,12039.9438,E,0.00,,050307,,,A*70
$GPGGA,052821.377,2409.1925,N,12039.9438,E,1,06,1.6,205.9,M,,,,0000*00
$GPGSA,A,3,10,17,04,02,13,27,,,,,,,3.2,1.6,2.7*37
21.377,A,2409.1925,N,12039.9438,E,0.00,,050307,,,A*71
$GPGGA,052822.377,2409.1925,N,12039.9438,E,1,06,1.6,205.9,M,,,,0000*03
$GPGSA,A,3,10,17,04,02,13,27,,,,,,,3.2,1.6,2.7*37
77,A,2409.1925,N,12039.9438,E,0.00,,050307,,,A*72
$GPGGA,052823.377,2409.1925,N,12039.9438,E,1,06,1.6,205.9,M,,,,0000*02
$GPGSA,A,3,10,17,04,02,13,27,,,,,,,3.2,1.6,2.7*37
,10,55,290,45,02,54,358,41,04,43,069,43,17,20,151,29*78
$GPGSV,3,2,10,13,16,040,38,26,15,197,,05,12,267,18,27,08,087,28*78
$GPGSV,3,3,10,30,07,291,,08,07,115,*7C
$GPRMC,052823.377,A,2409.1925,N,12039.9438,E,0.00,,050307,,,A*73
$GPGGA,052824.377,2409.1925,N,12039.9438,E,1,06,1.6,205.9,M,,,,0000*05
$GPGSA,A,3,10,17,04,02,13,27,,,,,,,3.2,1.6,2.7*37
77,A,2409.1925,N,12039.9438,E,0.00,,050307,,,A*74
$GPGGA,052825.377,2409.1925,N,12039.9438,E,1,06,1.6,205.9,M,,,,0000*04
$GPGSA,A,3,10,17,04,02,13,27,,,,,,,3.2,1.6,2.7*37
,A,2409.1925,N,12039.9438,E,0.00,,050307,,,A*75
$GPGGA,052826.377,2409.1925,N,12039.9438,E,1,06,1.6,205.9,M,,,,0000*07
$GPGSA,A,3,10,17,04,02,13,27,,,,,,,3.2,1.6,2.7*37
377,A,2409.1925,N,12039.9438,E,0.00,,050307,,,A*76
$GPGGA,052827.377,2409.1925,N,12039.9438,E,1,06,1.6,205.9,M,,,,0000*06
$GPGSA,A,3,10,17,04,02,13,27,,,,,,,3.2,1.6,2.7*37
7,A,2409.1925,N,12039.9438,E,0.00,,050307,,,A*77
$GPGGA,052828.377,2409.1925,N,12039.9438,E,1,06,1.6,205.9,M,,,,0000*09
$GPGSA,A,3,10,17,04,02,13,27,,,,,,,3.2,1.6,2.7*37
10,10,55,290,45,02,54,358,40,04,43,069,44,17,20,151,29*7E
$GPGSV,3,2,10,13,16,040,37,26,15,197,,05,12,267,19,27,08,087,27*79
$GPGSV,3,3,10,30,07,291,,08,07,115,*7C
$GPRMC,052828.377,A,2409.1925,N,12039.9438,E,0.00,,050307,,,A*78
$GPGGA,052829.377,2409.1925,N,12039.9438,E,1,06,1.6,205.9,M,,,,0000*08
$GPGSA,A,3,10,17,04,02,13,27,,,,,,,3.2,1.6,2.7*37
.377,A,2409.1925,N,12039.9438,E,0.00,,050307,,,A*79
$GPGGA,052830.376,2409.1925,N,12039.9438,E,1,06,1.6,205.9,M,,,,0000*01
$GPGSA,A,3,10,17,04,02,13,27,,,,,,,3.2,1.6,2.7*37
30.376,A,2409.1925,N,12039.9438,E,0.00,,050307,,,A*70
$GPGGA,052831.376,2409.1925,N,12039.9438,E,1,06,1.6,205.9,M,,,,0000*00
$GPGSA,A,3,10,17,04,02,13,27,,,,,,,3.2,1.6,2.7*37
1.376,A,2409.1925,N,12039.9438,E,0.00,,050307,,,A*71
$GPGGA,052832.376,2409.1925,N,12039.9438,E,1,06,1.6,205.9,M,,,,0000*03
$GPGSA,A,3,10,17,04,02,13,27,,,,,,,3.2,1.6,2.7*37
76,A,2409.1925,N,12039.9438,E,0.00,,050307,,,A*72
$GPGGA,052833.376,2409.1925,N,12039.9438,E,1,06,1.6,205.9,M,,,,0000*02
$GPGSA,A,3,10,17,04,02,13,27,,,,,,,3.2,1.6,2.7*37
10,55,290,45,02,54,358,40,04,43,069,43,17,20,151,29*79
$GPGSV,3,2,10,13,16,040,37,26,15,197,,05,12,267,21,27,08,087,25*70
$GPGSV,3,3,10,30,07,291,,08,07,115,*7C
$GPRMC,052833.376,A,2409.1925,N,12039.9438,E,0.00,,050307,,,A*73
$GPGGA,052834.376,2409.1925,N,12039.9438,E,1,06,1.6,205.9,M,,,,0000*05
$GPGSA,A,3,10,17,04,02,13,27,,,,,,,3.2,1.6,2.7*37
376,A,2409.1925,N,12039.9438,E,0.00,,050307,,,A*74
$GPGGA,052835.376,2409.1925,N,12039.9438,E,1,06,1.6,205.9,M,,,,0000*04
$GPGSA,A,3,10,17,04,02,13,27,,,,,,,3.2,1.6,2.7*37
76,A,2409.1925,N,12039.9438,E,0.00,,050307,,,A*75
$GPGGA,052836.376,2409.1925,N,12039.9438,E,1,06,1.6,205.9,M,,,,0000*07
$GPGSA,A,3,10,17,04,02,13,27,,,,,,,3.2,1.6,2.7*37
6.376,A,2409.1925,N,12039.9438,E,0.00,,050307,,,A*76
$GPGGA,052837.376,2409.1925,N,12039.9438,E,1,06,1.6,205.9,M,,,,0000*06
$GPGSA,A,3,10,17,04,02,13,27,,,,,,,3.2,1.6,2.7*37
76,A,2409.1925,N,12039.9438,E,0.00,,050307,,,A*77
$GPGGA,052838.376,2409.1925,N,12039.9438,E,1,06,1.6,205.9,M,,,,0000*09
$GPGSA,A,3,10,17,04,02,13,27,,,,,,,3.2,1.6,2.7*37
0,55,290,45,02,54,358,40,04,43,069,43,17,20,151,29*79
$GPGSV,3,2,10,13,16,040,38,26,15,197,,05,12,267,17,27,08,087,28*77
$GPGSV,3,3,10,30,07,291,,08,07,115,*7C
$GPRMC,052838.376,A,2409.1925,N,12039.9438,E,0.00,,050307,,,A*78
$GPGGA,052839.376,2409.1925,N,12039.9438,E,1,06,1.6,205.9,M,,,,0000*08
$GPGSA,A,3,10,17,04,02,13,27,,,,,,,3.2,1.6,2.7*37
,A,2409.1925,N,12039.9438,E,0.00,,050307,,,A*79
$GPGGA,052840.376,2409.1925,N,12039.9438,E,1,06,1.6,205.9,M,,,,0000*06
$GPGSA,A,3,10,17,04,02,13,27,,,,,,,3.2,1.6,2.7*37
376,A,2409.1925,N,12039.9438,E,0.00,,050307,,,A*77
$GPGGA,052841.376,2409.1925,N,12039.9438,E,1,06,1.6,205.9,M,,,,0000*07
$GPGSA,A,3,10,17,04,02,13,27,,,,,,,3.2,1.6,2.7*37
41.376,A,2409.1925,N,12039.9438,E,0.00,,050307,,,A*76
$GPGGA,052842.376,2409.1925,N,12039.9438,E,1,06,1.6,205.9,M,,,,0000*04
$GPGSA,A,3,10,17,04,02,13,27,,,,,,,3.2,1.6,2.7*37
,A,2409.1925,N,12039.9438,E,0.00,,050307,,,A*75
$GPGGA,052843.376,2409.1925,N,12039.9438,E,1,06,1.6,205.9,M,,,,0000*05
$GPGSA,A,3,10,17,04,02,13,27,,,,,,,3.2,1.6,2.7*37
10,55,290,45,02,54,358,40,04,43,069,43,17,20,151,28*78
$GPGSV,3,2,10,13,16,040,38,26,15,197,,05,12,267,20,27,08,087,22*79
$GPGSV,3,3,10,30,07,291,,08,07,115,*7C
$GPRMC,052843.376,A,2409.1925,N,12039.9438,E,0.00,,050307,,,A*74
$GPGGA,052844.376,2409.1925,N,12039.9438,E,1,06,1.6,205.9,M,,,,0000*02
$GPGSA,A,3,10,17,04,02,13,27,,,,,,,3.2,1.6,2.7*37
.376,A,2409.1925,N,12039.9438,E,0.00,,050307,,,A*73
$GPGGA,052845.376,2409.1925,N,12039.9438,E,1,06,1.6,205.9,M,,,,0000*03
$GPGSA,A,3,10,17,04,02,13,27,,,,,,,3.2,1.6,2.7*37
376,A,2409.1925,N,12039.9438,E,0.00,,050307,,,A*72
$GPGGA,052846.376,2409.1925,N,12039.9438,E,1,06,1.6,205.9,M,,,,0000*00
$GPGSA,A,3,10,17,04,02,13,27,,,,,,,3.2,1.6,2.7*37
6.376,A,2409.1925,N,12039.9438,E,0.00,,050307,,,A*71
$GPGGA,052847.375,2409.1949,N,12039.9442,E,1,06,1.6,215.1,M,,,,0000*0C
$GPGSA,A,3,10,17,04,02,13,27,,,,,,,3.2,1.6,2.7*37
47.375,A,2409.1949,N,12039.9442,E,0.00,,050307,,,A*74
$GPGGA,052848.375,2409.1949,N,12039.9442,E,1,06,1.6,215.1,M,,,,0000*03
$GPGSA,A,3,10,17,04,02,13,27,,,,,,,3.2,1.6,2.7*37
SV,3,1,11,10,55,290,45,02,54,359,39,04,42,070,43,17,20,151,28*7F
$GPGSV,3,2,11,12,18,261,,13,16,039,37,26,15,197,,05,12,266,18*7E
$GPGSV,3,3,11,27,08,087,29,08,07,114,,30,07,290,*44
$GPRMC,052848.375,A,2409.1949,N,12039.9442,E,0.00,,050307,,,A*7B
$GPGGA,052849.375,2409.1949,N,12039.9442,E,1,06,1.6,215.1,M,,,,0000*02
$GPGSA,A,3,10,17,04,02,13,27,,,,,,,3.2,1.6,2.7*37
75,A,2409.1949,N,12039.9442,E,0.00,,050307,,,A*7A
$GPGGA,052850.375,2409.1949,N,12039.9442,E,1,06,1.6,215.1,M,,,,0000*0A
$GPGSA,A,3,10,17,04,02,13,27,,,,,,,3.2,1.6,2.7*37
375,A,2409.1949,N,12039.9442,E,0.00,,050307,,,A*72
$GPGGA,052851.375,2409.1949,N,12039.9442,E,1,06,1.6,215.1,M,,,,0000*0B
$GPGSA,A,3,10,17,04,02,13,27,,,,,,,3.2,1.6,2.7*37
51.375,A,2409.1949,N,12039.9442,E,0.00,,050307,,,A*73
$GPGGA,052852.375,2409.1949,N,12039.9442,E,1,06,1.6,215.1,M,,,,0000*08
$GPGSA,A,3,10,17,04,02,13,27,,,,,,,3.2,1.6,2.7*37
5,A,2409.1949,N,12039.9442,E,0.00,,050307,,,A*70
$GPGGA,052853.375,2409.1949,N,12039.9442,E,1,06,1.6,215.1,M,,,,0000*09
$GPGSA,A,3,10,17,04,02,13,27,,,,,,,3.2,1.6,2.7*37
11,10,55,290,45,02,54,359,39,04,42,070,43,17,20,151,28*7F
$GPGSV,3,2,11,12,18,261,,13,16,039,37,26,15,197,,05,12,266,20*75
$GPGSV,3,3,11,27,08,087,19,08,07,114,,30,07,290,*47
$GPRMC,052853.375,A,2409.1949,N,12039.9442,E,0.00,,050307,,,A*71
$GPGGA,052854.375,2409.1949,N,12039.9442,E,1,06,1.6,215.1,M,,,,0000*0E
$GPGSA,A,3,10,17,04,02,13,27,,,,,,,3.2,1.6,2.7*37
75,A,2409.1949,N,12039.9442,E,0.00,,050307,,,A*76
$GPGGA,052855.375,2409.1949,N,12039.9442,E,1,06,1.6,215.1,M,,,,0000*0F
$GPGSA,A,3,10,17,04,02,13,27,,,,,,,3.2,1.6,2.7*37
A,2409.1949,N,12039.9442,E,0.00,,050307,,,A*77
$GPGGA,052856.375,2409.1949,N,12039.9442,E,1,06,1.6,215.1,M,,,,0000*0C
$GPGSA,A,3,10,17,04,02,13,27,,,,,,,3.2,1.6,2.7*37
75,A,2409.1949,N,12039.9442,E,0.00,,050307,,,A*74
$GPGGA,052857.375,2409.1949,N,12039.9442,E,1,06,1.6,215.1,M,,,,0000*0D
$GPGSA,A,3,10,17,04,02,13,27,,,,,,,3.2,1.6,2.7*37
409.1949,N,12039.9442,E,0.00,,050307,,,A*75
$GPGGA,052858.375,2409.1949,N,12039.9442,E,1,06,1.6,215.1,M,,,,0000*02
$GPGSA,A,3,10,17,04,02,13,27,,,,,,,3.2,1.6,2.7*37
90,45,02,54,359,39,04,42,070,43,17,20,151,28*7F
$GPGSV,3,2,11,12,18,261,,13,16,039,37,26,15,197,,05,12,266,17*71
$GPGSV,3,3,11,27,08,087,29,08,07,114,,30,07,290,*44
$GPRMC,052858.375,A,2409.1949,N,12039.9442,E,0.00,,050307,,,A*7A
$GPGGA,052859.375,2409.1949,N,12039.9442,E,1,06,1.6,215.1,M,,,,0000*03
$GPGSA,A,3,10,17,04,02,13,27,,,,,,,3.2,1.6,2.7*37
409.1949,N,12039.9442,E,0.00,,050307,,,A*7B
$GPGGA,052900.375,2409.1949,N,12039.9442,E,1,06,1.6,215.1,M,,,,0000*0E
$GPGSA,A,3,10,17,04,02,13,27,,,,,,,3.2,1.6,2.7*37
2409.1949,N,12039.9442,E,0.00,,050307,,,A*76
$GPGGA,052901.375,2409.1949,N,12039.9442,E,1,06,1.6,215.1,M,,,,0000*0F
$GPGSA,A,3,10,17,04,02,13,27,,,,,,,3.1,1.6,2.7*34
,2409.1949,N,12039.9442,E,0.00,,050307,,,A*77
$GPGGA,052902.375,2409.1949,N,12039.9442,E,1,06,1.6,215.1,M,,,,0000*0C
$GPGSA,A,3,10,17,04,02,13,27,,,,,,,3.1,1.6,2.7*34
902.375,A,2409.1949,N,12039.9442,E,0.00,,050307,,,A*74
$GPGGA,052903.375,2409.1949,N,12039.9442,E,1,06,1.6,215.1,M,,,,0000*0D
$GPGSA,A,3,10,17,04,02,13,27,,,,,,,3.1,1.6,2.7*34
,55,290,45,02,54,359,39,04,42,070,43,17,20,151,28*7F
$GPGSV,3,2,11,12,18,261,,13,16,039,37,26,15,197,,05,12,266,21*74
$GPGSV,3,3,11,27,08,087,26,08,07,114,,30,07,290,*4B
$GPRMC,052903.375,A,2409.1949,N,12039.9442,E,0.00,,050307,,,A*75
$GPGGA,052904.374,2409.1949,N,12039.9442,E,1,06,1.6,215.1,M,,,,0000*0B
$GPGSA,A,3,10,17,04,02,13,27,,,,,,,3.1,1.6,2.7*34
409.1949,N,12039.9442,E,0.00,,050307,,,A*73
$GPGGA,052905.374,2409.1949,N,12039.9442,E,1,06,1.6,215.1,M,,,,0000*0A
$GPGSA,A,3,10,17,04,02,13,27,,,,,,,3.1,1.6,2.7*34
A,2409.1949,N,12039.9442,E,0.00,,050307,,,A*72
$GPGGA,052906.374,2409.1949,N,12039.9442,E,1,06,1.6,215.1,M,,,,0000*09
$GPGSA,A,3,10,17,04,02,13,27,,,,,,,3.1,1.6,2.7*34
09.1949,N,12039.9442,E,0.00,,050307,,,A*71
$GPGGA,052907.374,2409.1949,N,12039.9442,E,1,06,1.6,215.1,M,,,,0000*08
$GPGSA,A,3,10,17,04,02,13,27,,,,,,,3.1,1.6,2.7*34
9.1949,N,12039.9442,E,0.00,,050307,,,A*70
$GPGGA,052908.374,2409.1949,N,12039.9442,E,1,06,1.6,215.1,M,,,,0000*07
$GPGSA,A,3,10,17,04,02,13,27,,,,,,,3.1,1.6,2.7*34
90,45,02,54,359,39,04,42,070,42,17,20,151,28*7E
$GPGSV,3,2,11,12,18,261,,13,16,039,38,26,15,197,,05,12,266,21*7B
$GPGSV,3,3,11,27,08,087,29,08,07,114,,30,07,290,*44
$GPRMC,052908.374,A,2409.1949,N,12039.9442,E,0.00,,050307,,,A*7F
$GPGGA,052909.374,2409.1949,N,12039.9442,E,1,06,1.6,215.1,M,,,,0000*06
$GPGSA,A,3,10,17,04,02,13,27,,,,,,,3.1,1.6,2.7*34
409.1949,N,12039.9442,E,0.00,,050307,,,A*7E
$GPGGA,052910.374,2409.1949,N,12039.9442,E,1,06,1.6,215.1,M,,,,0000*0E
$GPGSA,A,3,10,17,04,02,13,27,,,,,,,3.1,1.6,2.7*34
9.1949,N,12039.9442,E,0.00,,050307,,,A*76
$GPGGA,052911.374,2409.1949,N,12039.9442,E,1,06,1.6,215.1,M,,,,0000*0F
$GPGSA,A,3,10,17,04,02,13,27,,,,,,,3.1,1.6,2.7*34
409.1949,N,12039.9442,E,0.00,,050307,,,A*77
$GPGGA,052912.374,2409.1949,N,12039.9442,E,1,06,1.6,215.1,M,,,,0000*0C
$GPGSA,A,3,10,17,04,02,13,27,,,,,,,3.1,1.6,2.7*34
409.1949,N,12039.9442,E,0.00,,050307,,,A*74
$GPGGA,052913.374,2409.1949,N,12039.9442,E,1,06,1.6,215.1,M,,,,0000*0D
$GPGSA,A,3,10,17,04,02,13,27,,,,,,,3.1,1.6,2.7*34
90,45,02,54,359,39,04,42,070,42,17,20,151,27*71
$GPGSV,3,2,11,12,18,261,,13,16,039,37,26,15,197,,05,12,266,21*74
$GPGSV,3,3,11,27,08,087,26,08,07,114,,30,07,290,*4B
$GPRMC,052913.374,A,2409.1949,N,12039.9442,E,0.00,,050307,,,A*75
$GPGGA,052914.374,2409.1949,N,12039.9442,E,1,06,1.6,215.1,M,,,,0000*0A
$GPGSA,A,3,10,17,04,02,13,27,,,,,,,3.1,1.6,2.7*34
1949,N,12039.9442,E,0.00,,050307,,,A*72
$GPGGA,052915.374,2409.1949,N,12039.9442,E,1,06,1.6,215.1,M,,,,0000*0B
$GPGSA,A,3,10,17,04,02,13,27,,,,,,,3.1,1.6,2.7*34
09.1949,N,12039.9442,E,0.00,,050307,,,A*73
$GPGGA,052916.374,2409.1949,N,12039.9442,E,1,06,1.6,215.1,M,,,,0000*08
$GPGSA,A,3,10,17,04,02,13,27,,,,,,,3.1,1.6,2.7*34
09.1949,N,12039.9442,E,0.00,,050307,,,A*70
$GPGGA,052917.374,2409.1949,N,12039.9442,E,1,06,1.6,215.1,M,,,,0000*09
$GPGSA,A,3,10,17,04,02,13,27,,,,,,,3.1,1.6,2.7*34
.1949,N,12039.9442,E,0.00,,050307,,,A*71
$GPGGA,052918.374,2409.1949,N,12039.9442,E,1,06,1.6,215.1,M,,,,0000*06
$GPGSA,A,3,10,17,04,02,13,27,,,,,,,3.1,1.6,2.7*34
