$GPGGA,062520.021,2409.3486,N,12039.6868,E,1,05,1.8,83.1,M,,,,0000*36
$GPGSA,A,3,26,24,21,10,07,,,,,,,,2.8,1.8,2.2*36
$GPGSV,3,1,11,24,80,301,29,26,53,012,44,09,45,175,13,29,42,024,14*7A
$GPGSV,3,2,11,21,38,317,40,10,29,076,43,22,25,310,,06,23,235,14*7E
$GPGSV,3,3,11,07,21,251,34,18,15,302,,27,06,038,*48
$GPRMC,062520.021,A,2409.3486,N,12039.6868,E,0.00,,130407,,,A*7E
$GPGGA,062521.021,2409.3486,N,12039.6868,E,1,05,1.8,83.1,M,,,,0000*37
$GPGSA,A,3,26,24,21,10,07,,,,,,,,2.8,1.8,2.2*36
$GPRMC,062521.021,A,2409.3486,N,12039.6868,E,0.00,,130407,,,A*7F
$GPGGA,062522.020,2409.3486,N,12039.6868,E,1,05,1.8,83.1,M,,,,0000*35
$GPGSA,A,3,26,24,21,10,07,,,,,,,,2.8,1.8,2.2*36
$GPRMC,062522.020,A,2409.3486,N,12039.6868,E,0.00,,130407,,,A*7D
$GPGGA,062523.020,2409.3486,N,12039.6868,E,1,05,1.8,83.1,M,,,,0000*34
$GPGSA,A,3,26,24,21,10,07,,,,,,,,2.8,1.8,2.2*36
$GPRMC,062523.020,A,2409.3486,N,12039.6868,E,0.00,,130407,,,A*7C
$GPGGA,062524.020,2409.3486,N,12039.6868,E,1,05,1.8,83.1,M,,,,0000*33
$GPGSA,A,3,26,24,21,10,07,,,,,,,,2.8,1.8,2.2*36
$GPRMC,062524.020,A,2409.3486,N,12039.6868,E,0.00,,130407,,,A*7B
$GPGGA,062525.020,2409.3486,N,12039.6868,E,1,06,1.6,83.1,M,,,,0000*3F
$GPGSA,A,3,26,24,29,21,10,07,,,,,,,2.7,1.6,2.2*3C
$GPGSV,3,1,11,24,80,301,32,26,53,012,43,09,45,175,13,29,42,024,25*75
$GPGSV,3,2,11,21,38,317,42,10,29,076,42,22,25,310,,06,23,235,12*7B
$GPGSV,3,3,11,07,21,251,34,18,15,302,24,27,06,038,*4E
7A
$GPGGA,062526.020,2409.3486,N,12039.6868,E,1,06,1.6,83.1,M,,,,0000*3C
$GPGSA,A,3,26,24,29,21,10,07,,,,,,,2.7,1.6,2.2*3C
$GPRMC,062526.020,A,2409.3486,N,12039.6868,E,0.00,,130407,,,A*79
$GPGGA,062527.020,2409.3486,N,12039.6868,E,1,06,1.6,83.1,M,,,,0000*3D
$GPGSA,A,3,26,24,29,21,10,07,,,,,,,2.7,1.6,2.2*3C
$GPRMC,062527.020,A,2409.3486,N,12039.6868,E,0.00,,130407,,,A*78
$GPGGA,062528.020,2409.3486,N,12039.6868,E,1,06,1.6,83.1,M,,,,0000*32
$GPGSA,A,3,26,24,29,21,10,07,,,,,,,2.7,1.6,2.2*3C
$GPRMC,062528.020,A,2409.3486,N,12039.6868,E,0.00,,130407,,,A*77
$GPGGA,062529.020,2409.3486,N,12039.6868,E,1,06,1.6,83.1,M,,,,0000*33
$GPGSA,A,3,26,24,29,21,10,07,,,,,,,2.7,1.6,2.2*3C
$GPRMC,062529.020,A,2409.3486,N,12039.6868,E,0.00,,130407,,,A*76
$GPGGA,062530.020,2409.3486,N,12039.6868,E,1,06,1.6,83.1,M,,,,0000*3B
$GPGSA,A,3,26,24,29,21,10,07,,,,,,,2.7,1.6,2.2*3C
$GPGSV,3,1,11,24,80,301,29,26,53,012,43,09,45,175,13,29,42,024,39*72
$GPGSV,3,2,11,21,38,317,42,10,29,076,43,22,25,310,,06,23,235,12*7A
$GPGSV,3,3,11,07,21,251,33,18,15,302,20,27,06,038,*4D
$GPRMC,062530.020,A,2409.3486,N,12039.6868,E,0.00,,130407,,,A*7E
$GPGGA,062531.020,2409.3475,N,12039.6879,E,1,06,1.6,96.3,M,,,,0000*30
$GPGSA,A,3,26,24,29,21,10,07,,,,,,,2.7,1.6,2.2*3C
$GPRMC,062531.020,A,2409.3475,N,12039.6879,E,0.00,,130407,,,A*73
$GPGGA,062532.020,2409.3475,N,12039.6879,E,1,06,1.6,96.3,M,,,,0000*33
$GPGSA,A,3,26,24,29,21,10,07,,,,,,,2.7,1.6,2.2*3C
$GPRMC,062532.020,A,2409.3475,N,12039.6879,E,0.00,,130407,,,A*70
$GPGGA,062533.020,2409.3472,N,12039.6893,E,1,06,1.6,109.9,M,,,,0000*0C
$GPGSA,A,3,26,24,29,21,10,07,,,,,,,2.7,1.6,2.2*3C
$GPRMC,062533.020,A,2409.3472,N,12039.6893,E,0.00,,130407,,,A*72
$GPGGA,062534.020,2409.3472,N,12039.6893,E,1,06,1.6,109.9,M,,,,0000*0B
$GPGSA,A,3,26,24,29,21,10,07,,,,,,,2.7,1.6,2.2*3C
$GPRMC,062534.020,A,2409.3472,N,12039.6893,E,0.00,,130407,,,A*75
$GPGGA,062535.020,2409.3472,N,12039.6893,E,1,06,1.6,109.9,M,,,,0000*0A
$GPGSA,A,3,26,24,29,21,10,07,,,,,,,2.7,1.6,2.2*3C
$GPGSV,3,1,11,24,80,301,29,26,53,012,42,09,45,175,13,29,42,024,37*7D
$GPGSV,3,2,11,21,38,317,44,10,29,076,44,22,25,310,,06,23,235,12*7B
$GPGSV,3,3,11,07,21,251,29,18,15,302,16,27,06,038,*43
$GPRMC,062535.020,A,2409.3472,N,12039.6893,E,0.00,,130407,,,A*74
$GPGGA,062536.020,2409.3472,N,12039.6893,E,1,06,1.6,109.9,M,,,,0000*09
$GPGSA,A,3,26,24,29,21,10,07,,,,,,,2.7,1.6,2.2*3C
$GPRMC,062536.020,A,2409.3472,N,12039.6893,E,0.00,,130407,,,A*77
$GPGGA,062537.020,2409.3472,N,12039.6893,E,1,06,1.6,109.9,M,,,,0000*08
$GPGSA,A,3,26,24,29,21,10,07,,,,,,,2.7,1.6,2.2*3C
$GPRMC,062537.020,A,2409.3472,N,12039.6893,E,0.00,,130407,,,A*76
$GPGGA,062538.020,2409.3472,N,12039.6893,E,1,06,1.6,109.9,M,,,,0000*07
$GPGSA,A,3,26,24,29,21,10,07,,,,,,,2.7,1.6,2.2*3C
$GPRMC,062538.020,A,2409.3472,N,12039.6893,E,0.00,,130407,,,A*79
$GPGGA,062539.019,2409.3472,N,12039.6893,E,1,06,1.6,109.9,M,,,,0000*0C
$GPGSA,A,3,26,24,29,21,10,07,,,,,,,2.7,1.6,2.2*3C
$GPRMC,062539.019,A,2409.3472,N,12039.6893,E,0.00,,130407,,,A*72
$GPGGA,062540.019,2409.3472,N,12039.6893,E,1,07,1.1,109.9,M,,,,0000*04
$GPGSA,A,3,26,24,09,29,21,10,07,,,,,,2.4,1.1,2.1*32
$GPGSV,3,1,11,24,80,301,27,26,53,012,43,09,45,175,23,29,42,024,38*7E
$GPGSV,3,2,11,21,38,317,45,10,29,076,41,22,25,310,,06,23,235,14*79
$GPGSV,3,3,11,07,21,251,30,18,15,302,24,27,06,038,*4A
30407,,,A*7C
$GPGGA,062541.019,2409.3472,N,12039.6893,E,1,07,1.1,109.9,M,,,,0000*05
$GPGSA,A,3,26,24,09,29,21,10,07,,,,,,2.4,1.1,2.1*32
$GPRMC,062541.019,A,2409.3472,N,12039.6893,E,0.00,,130407,,,A*7D
$GPGGA,062542.019,2409.3472,N,12039.6893,E,1,07,1.1,109.9,M,,,,0000*06
$GPGSA,A,3,26,24,09,29,21,10,07,,,,,,2.4,1.1,2.1*32
$GPRMC,062542.019,A,2409.3472,N,12039.6893,E,0.00,,130407,,,A*7E
$GPGGA,062543.019,2409.3472,N,12039.6893,E,1,07,1.1,109.9,M,,,,0000*07
$GPGSA,A,3,26,24,09,29,21,10,07,,,,,,2.4,1.1,2.1*32
$GPRMC,062543.019,A,2409.3472,N,12039.6893,E,0.00,,130407,,,A*7F
$GPGGA,062544.019,2409.3472,N,12039.6893,E,1,07,1.1,109.9,M,,,,0000*00
$GPGSA,A,3,26,24,09,29,21,10,07,,,,,,2.4,1.1,2.1*32
$GPRMC,062544.019,A,2409.3472,N,12039.6893,E,0.00,,130407,,,A*78
$GPGGA,062545.019,2409.3472,N,12039.6893,E,1,07,1.1,109.9,M,,,,0000*01
$GPGSA,A,3,26,24,09,29,21,10,07,,,,,,2.4,1.1,2.1*32
$GPGSV,3,1,11,24,80,301,27,26,53,012,43,09,45,175,17,29,42,024,41*77
$GPGSV,3,2,11,21,38,317,43,10,29,076,42,22,25,310,,06,23,235,14*7C
$GPGSV,3,3,11,07,21,251,31,18,15,302,29,27,06,038,*46
A*79
$GPGGA,062546.019,2409.3472,N,12039.6893,E,1,07,1.1,109.9,M,,,,0000*02
$GPGSA,A,3,26,24,09,29,21,10,07,,,,,,2.4,1.1,2.1*32
$GPRMC,062546.019,A,2409.3472,N,12039.6893,E,0.00,,130407,,,A*7A
$GPGGA,062547.019,2409.3472,N,12039.6893,E,1,07,1.1,109.9,M,,,,0000*03
$GPGSA,A,3,26,24,09,29,21,10,07,,,,,,2.4,1.1,2.1*32
$GPRMC,062547.019,A,2409.3472,N,12039.6893,E,0.00,,130407,,,A*7B
$GPGGA,062548.019,2409.3472,N,12039.6893,E,1,07,1.1,109.9,M,,,,0000*0C
$GPGSA,A,3,26,24,09,29,21,10,07,,,,,,2.4,1.1,2.1*32
$GPRMC,062548.019,A,2409.3472,N,12039.6893,E,0.00,,130407,,,A*74
$GPGGA,062549.019,2409.3472,N,12039.6893,E,1,07,1.1,109.9,M,,,,0000*0D
$GPGSA,A,3,26,24,09,29,21,10,07,,,,,,2.4,1.1,2.1*32
$GPRMC,062549.019,A,2409.3472,N,12039.6893,E,0.00,,130407,,,A*75
$GPGGA,062550.019,2409.3472,N,12039.6893,E,1,07,1.1,109.9,M,,,,0000*05
$GPGSA,A,3,26,24,09,29,21,10,07,,,,,,2.4,1.1,2.1*32
$GPGSV,3,1,11,24,80,300,28,26,52,012,41,09,46,175,21,29,42,024,40*7D
$GPGSV,3,2,11,21,38,317,42,10,29,076,42,22,25,310,,06,23,235,14*7D
$GPGSV,3,3,11,07,21,250,32,18,15,302,26,27,06,038,*4B
A*7D
$GPGGA,062551.019,2409.3472,N,12039.6893,E,1,07,1.1,109.9,M,,,,0000*04
$GPGSA,A,3,26,24,09,29,21,10,07,,,,,,2.4,1.1,2.1*32
$GPRMC,062551.019,A,2409.3472,N,12039.6893,E,0.00,,130407,,,A*7C
$GPGGA,062552.019,2409.3472,N,12039.6893,E,1,07,1.1,109.9,M,,,,0000*07
$GPGSA,A,3,26,24,09,29,21,10,07,,,,,,2.4,1.1,2.1*32
$GPRMC,062552.019,A,2409.3472,N,12039.6893,E,0.00,,130407,,,A*7F
$GPGGA,062553.019,2409.3472,N,12039.6893,E,1,07,1.1,109.9,M,,,,0000*06
$GPGSA,A,3,26,24,09,29,21,10,07,,,,,,2.4,1.1,2.1*32
$GPRMC,062553.019,A,2409.3472,N,12039.6893,E,0.00,,130407,,,A*7E
$GPGGA,062554.019,2409.3472,N,12039.6893,E,1,07,1.1,109.9,M,,,,0000*01
$GPGSA,A,3,26,24,09,29,21,10,07,,,,,,2.4,1.1,2.1*32
$GPRMC,062554.019,A,2409.3472,N,12039.6893,E,0.00,,130407,,,A*79
$GPGGA,062555.019,2409.3472,N,12039.6893,E,1,07,1.1,109.9,M,,,,0000*00
$GPGSA,A,3,26,24,09,29,21,10,07,,,,,,2.4,1.1,2.1*32
$GPGSV,3,1,11,24,80,300,28,26,52,012,40,09,46,175,18,29,42,024,36*77
$GPGSV,3,2,11,21,38,317,43,10,29,076,41,22,25,310,,06,23,235,14*7F
$GPGSV,3,3,11,07,21,250,32,18,15,302,22,27,06,038,*4F
8
$GPGGA,062556.018,2409.3472,N,12039.6893,E,1,07,1.1,109.9,M,,,,0000*02
$GPGSA,A,3,26,24,09,29,21,10,07,,,,,,2.4,1.1,2.1*32
$GPRMC,062556.018,A,2409.3472,N,12039.6893,E,0.00,,130407,,,A*7A
$GPGGA,062557.018,2409.3472,N,12039.6893,E,1,07,1.1,109.9,M,,,,0000*03
$GPGSA,A,3,26,24,09,29,21,10,07,,,,,,2.4,1.1,2.1*32
$GPRMC,062557.018,A,2409.3472,N,12039.6893,E,0.00,,130407,,,A*7B
$GPGGA,062558.018,2409.3472,N,12039.6893,E,1,07,1.1,109.9,M,,,,0000*0C
$GPGSA,A,3,26,24,09,29,21,10,07,,,,,,2.4,1.1,2.1*32
$GPRMC,062558.018,A,2409.3472,N,12039.6893,E,0.00,,130407,,,A*74
$GPGGA,062559.018,2409.3472,N,12039.6893,E,1,07,1.1,109.9,M,,,,0000*0D
$GPGSA,A,3,26,24,09,29,21,10,07,,,,,,2.4,1.1,2.1*32
$GPRMC,062559.018,A,2409.3472,N,12039.6893,E,0.00,,130407,,,A*75
$GPGGA,062600.018,2409.3472,N,12039.6893,E,1,07,1.1,109.9,M,,,,0000*02
$GPGSA,A,3,26,24,09,29,21,10,07,,,,,,2.4,1.1,2.1*32
$GPGSV,3,1,11,24,80,300,27,26,52,012,40,09,46,175,18,29,42,024,37*79
$GPGSV,3,2,11,21,38,317,43,10,29,076,39,22,25,310,,06,23,235,14*70
$GPGSV,3,3,11,07,21,250,32,18,15,302,26,27,06,038,*4B
$GPRMC,062600.018,A,2409.3472,N,12039.6893,E,0.00,,130407,,,A*7A
$GPGGA,062601.018,2409.3472,N,12039.6893,E,1,07,1.1,109.9,M,,,,0000*03
$GPGSA,A,3,26,24,09,29,21,10,07,,,,,,2.4,1.1,2.1*32
$GPRMC,062601.018,A,2409.3472,N,12039.6893,E,0.00,,130407,,,A*7B
$GPGGA,062602.018,2409.3472,N,12039.6893,E,1,07,1.1,109.9,M,,,,0000*00
$GPGSA,A,3,26,24,09,29,21,10,07,,,,,,2.4,1.1,2.1*32
$GPRMC,062602.018,A,2409.3472,N,12039.6893,E,0.00,,130407,,,A*78
$GPGGA,062603.018,2409.3472,N,12039.6893,E,1,07,1.1,109.9,M,,,,0000*01
$GPGSA,A,3,26,24,09,29,21,10,07,,,,,,2.4,1.1,2.1*32
$GPRMC,062603.018,A,2409.3472,N,12039.6893,E,0.00,,130407,,,A*79
$GPGGA,062604.018,2409.3472,N,12039.6893,E,1,07,1.1,109.9,M,,,,0000*06
$GPGSA,A,3,26,24,09,29,21,10,07,,,,,,2.4,1.1,2.1*32
$GPRMC,062604.018,A,2409.3472,N,12039.6893,E,0.00,,130407,,,A*7E
$GPGGA,062605.018,2409.3472,N,12039.6893,E,1,07,1.1,109.9,M,,,,0000*07
$GPGSA,A,3,26,24,09,29,21,10,07,,,,,,2.4,1.1,2.1*32
$GPGSV,3,1,11,24,80,300,29,26,52,012,38,09,46,175,16,29,42,024,38*79
$GPGSV,3,2,11,21,38,317,44,10,29,076,39,22,25,310,,06,23,235,14*77
$GPGSV,3,3,11,07,21,250,32,18,15,302,25,27,06,038,*48
$GPRMC,062605.018,A,2409.3472,N,12039.6893,E,0.00,,130407,,,A*7F
$GPGGA,062606.018,2409.3472,N,12039.6893,E,1,07,1.1,109.9,M,,,,0000*04
$GPGSA,A,3,26,24,09,29,21,10,07,,,,,,2.4,1.1,2.1*32
$GPRMC,062606.018,A,2409.3472,N,12039.6893,E,0.00,,130407,,,A*7C
$GPGGA,062607.018,2409.3472,N,12039.6893,E,1,07,1.1,109.9,M,,,,0000*05
$GPGSA,A,3,26,24,09,29,21,10,07,,,,,,2.4,1.1,2.1*32
$GPRMC,062607.018,A,2409.3472,N,12039.6893,E,0.00,,130407,,,A*7D
$GPGGA,062608.018,2409.3472,N,12039.6893,E,1,06,1.6,109.9,M,,,,0000*0C
$GPGSA,A,3,26,24,29,21,10,07,,,,,,,2.7,1.6,2.2*3C
$GPRMC,062608.018,A,2409.3472,N,12039.6893,E,0.00,,130407,,,A*72
$GPGGA,062609.018,2409.3472,N,12039.6893,E,1,06,1.6,109.9,M,,,,0000*0D
$GPGSA,A,3,26,24,29,21,10,07,,,,,,,2.7,1.6,2.2*3C
$GPRMC,062609.018,A,2409.3472,N,12039.6893,E,0.00,,130407,,,A*73
$GPGGA,062610.018,2409.3472,N,12039.6893,E,1,07,1.1,109.9,M,,,,0000*03
$GPGSA,A,3,26,24,09,29,21,10,07,,,,,,2.4,1.1,2.1*32
$GPGSV,3,1,11,24,80,300,28,26,52,012,38,09,46,175,15,29,42,024,39*7A
$GPGSV,3,2,11,21,38,317,42,10,29,076,39,22,25,310,,06,23,235,14*71
$GPGSV,3,3,11,07,21,250,33,18,15,302,17,27,06,038,*48
$GPRMC,062610.018,A,2409.3472,N,12039.6893,E,0.00,,130407,,,A*7B
$GPGGA,062611.018,2409.3472,N,12039.6893,E,1,06,1.6,109.9,M,,,,0000*04
$GPGSA,A,3,26,24,29,21,10,07,,,,,,,2.7,1.6,2.2*3C
$GPRMC,062611.018,A,2409.3472,N,12039.6893,E,0.00,,130407,,,A*7A
$GPGGA,062612.017,2409.3496,N,12039.6899,E,1,06,1.6,98.3,M,,,,0000*3B
$GPGSA,A,3,26,24,29,21,10,07,,,,,,,2.7,1.6,2.2*3C
$GPRMC,062612.017,A,2409.3496,N,12039.6899,E,0.00,,130407,,,A*76
$GPGGA,062613.017,2409.3496,N,12039.6899,E,1,07,1.1,98.3,M,,,,0000*3C
$GPGSA,A,3,26,24,09,29,21,10,07,,,,,,2.3,1.1,2.1*35
$GPRMC,062613.017,A,2409.3496,N,12039.6899,E,0.00,,130407,,,A*77
$GPGGA,062614.017,2409.3496,N,12039.6899,E,1,06,1.6,98.3,M,,,,0000*3D
$GPGSA,A,3,26,24,29,21,10,07,,,,,,,2.7,1.6,2.2*3C
$GPRMC,062614.017,A,2409.3496,N,12039.6899,E,0.00,,130407,,,A*70
$GPGGA,062615.017,2409.3496,N,12039.6899,E,1,07,1.1,98.3,M,,,,0000*3A
$GPGSA,A,3,26,24,09,29,21,10,07,,,,,,2.3,1.1,2.1*35
$GPGSV,3,1,11,24,80,300,30,26,52,012,40,09,46,175,15,29,42,024,37*72
$GPGSV,3,2,11,21,38,317,44,10,29,076,39,22,25,310,,06,23,235,14*77
$GPGSV,3,3,11,07,21,250,33,18,15,302,25,27,06,038,*49
$GPRMC,062615.017,A,2409.3496,N,12039.6899,E,0.00,,130407,,,A*71
$GPGGA,062616.017,2409.3496,N,12039.6899,E,1,06,1.6,98.3,M,,,,0000*3F
$GPGSA,A,3,26,24,29,21,10,07,,,,,,,2.7,1.6,2.2*3C
$GPRMC,062616.017,A,2409.3496,N,12039.6899,E,0.00,,130407,,,A*72
$GPGGA,062617.017,2409.3496,N,12039.6899,E,1,07,1.1,98.3,M,,,,0000*38
$GPGSA,A,3,26,24,09,29,21,10,07,,,,,,2.3,1.1,2.1*35
$GPRMC,062617.017,A,2409.3496,N,12039.6899,E,0.00,,130407,,,A*73
$GPGGA,062618.017,2409.3496,N,12039.6899,E,1,06,1.6,98.3,M,,,,0000*31
$GPGSA,A,3,26,24,29,21,10,07,,,,,,,2.7,1.6,2.2*3C
$GPRMC,062618.017,A,2409.3496,N,12039.6899,E,0.00,,130407,,,A*7C
$GPGGA,062619.017,2409.3496,N,12039.6899,E,1,06,1.6,98.3,M,,,,0000*30
$GPGSA,A,3,26,24,29,21,10,07,,,,,,,2.7,1.6,2.2*3C
$GPRMC,062619.017,A,2409.3496,N,12039.6899,E,0.00,,130407,,,A*7D
$GPGGA,062620.017,2409.3496,N,12039.6899,E,1,07,1.1,98.3,M,,,,0000*3C
$GPGSA,A,3,26,24,09,29,21,10,07,,,,,,2.3,1.1,2.1*35
$GPGSV,3,1,11,24,80,298,29,26,52,012,40,09,46,175,16,29,42,025,37*78
$GPGSV,3,2,11,21,38,317,44,10,29,076,37,22,25,310,,06,23,235,14*79
$GPGSV,3,3,11,07,21,250,32,18,15,302,27,27,06,038,*4A
$GPRMC,062620.017,A,2409.3496,N,12039.6899,E,0.00,,130407,,,A*77
$GPGGA,062621.017,2409.3496,N,12039.6899,E,1,07,1.1,98.3,M,,,,0000*3D
$GPGSA,A,3,26,24,09,29,21,10,07,,,,,,2.3,1.1,2.1*35
$GPRMC,062621.017,A,2409.3496,N,12039.6899,E,0.00,,130407,,,A*76
$GPGGA,062622.017,2409.3496,N,12039.6899,E,1,07,1.1,98.3,M,,,,0000*3E
$GPGSA,A,3,26,24,09,29,21,10,07,,,,,,2.3,1.1,2.1*35
$GPRMC,062622.017,A,2409.3496,N,12039.6899,E,0.00,,130407,,,A*75
$GPGGA,062623.017,2409.3496,N,12039.6899,E,1,06,1.6,98.3,M,,,,0000*39
$GPGSA,A,3,26,24,29,21,10,07,,,,,,,2.7,1.6,2.2*3C
$GPRMC,062623.017,A,2409.3496,N,12039.6899,E,0.00,,130407,,,A*74
$GPGGA,062624.017,2409.3496,N,12039.6899,E,1,06,1.6,98.3,M,,,,0000*3E
$GPGSA,A,3,26,24,29,21,10,07,,,,,,,2.7,1.6,2.2*3C
$GPRMC,062624.017,A,2409.3496,N,12039.6899,E,0.00,,130407,,,A*73
$GPGGA,062625.017,2409.3496,N,12039.6899,E,1,06,1.6,98.3,M,,,,0000*3F
$GPGSA,A,3,26,24,29,21,10,07,,,,,,,2.7,1.6,2.2*3C
$GPGSV,3,1,11,24,80,298,32,26,52,012,39,09,46,175,13,29,42,025,36*78
$GPGSV,3,2,11,21,38,317,43,10,29,076,31,22,25,310,,06,23,235,14*78
$GPGSV,3,3,11,07,21,250,31,18,15,302,27,27,06,038,*49
$GPRMC,062625.017,A,2409.3496,N,12039.6899,E,0.00,,130407,,,A*72
$GPGGA,062626.017,2409.3496,N,12039.6899,E,1,06,1.6,98.3,M,,,,0000*3C
$GPGSA,A,3,26,24,29,21,10,07,,,,,,,2.7,1.6,2.2*3C
$GPRMC,062626.017,A,2409.3496,N,12039.6899,E,0.00,,130407,,,A*71
$GPGGA,062627.017,2409.3496,N,12039.6899,E,1,06,1.6,98.3,M,,,,0000*3D
$GPGSA,A,3,26,24,29,21,10,07,,,,,,,2.7,1.6,2.2*3C
$GPRMC,062627.017,A,2409.3496,N,12039.6899,E,0.00,,130407,,,A*70
$GPGGA,062628.017,2409.3496,N,12039.6899,E,1,06,1.6,98.3,M,,,,0000*32
$GPGSA,A,3,26,24,29,21,10,07,,,,,,,2.7,1.6,2.2*3C
$GPRMC,062628.017,A,2409.3496,N,12039.6899,E,0.00,,130407,,,A*7F
$GPGGA,062629.016,2409.3496,N,12039.6899,E,1,06,1.6,98.3,M,,,,0000*32
$GPGSA,A,3,26,24,29,21,10,07,,,,,,,2.7,1.6,2.2*3C
$GPRMC,062629.016,A,2409.3496,N,12039.6899,E,0.00,,130407,,,A*7F
$GPGGA,062630.016,2409.3496,N,12039.6899,E,1,06,1.6,98.3,M,,,,0000*3A
$GPGSA,A,3,26,24,29,21,10,07,,,,,,,2.7,1.6,2.2*3C
$GPGSV,3,1,11,24,80,298,31,26,52,012,43,09,46,175,13,29,42,025,37*77
$GPGSV,3,2,11,21,38,317,42,10,29,076,36,22,25,310,,06,23,235,14*7E
$GPGSV,3,3,11,07,21,250,30,18,15,302,22,27,06,038,*4D
$GPRMC,062630.016,A,2409.3496,N,12039.6899,E,0.00,,130407,,,A*77
$GPGGA,062631.016,2409.3496,N,12039.6899,E,1,06,1.6,98.3,M,,,,0000*3B
$GPGSA,A,3,26,24,29,21,10,07,,,,,,,2.7,1.6,2.2*3C
$GPRMC,062631.016,A,2409.3496,N,12039.6899,E,0.00,,130407,,,A*76
$GPGGA,062632.016,2409.3496,N,12039.6899,E,1,06,1.6,98.3,M,,,,0000*38
$GPGSA,A,3,26,24,29,21,10,07,,,,,,,2.7,1.6,2.2*3C
$GPRMC,062632.016,A,2409.3496,N,12039.6899,E,0.00,,130407,,,A*75
$GPGGA,062633.016,2409.3496,N,12039.6899,E,1,06,1.6,98.3,M,,,,0000*39
$GPGSA,A,3,26,24,29,21,10,07,,,,,,,2.7,1.6,2.2*3C
$GPRMC,062633.016,A,2409.3496,N,12039.6899,E,0.00,,130407,,,A*74
$GPGGA,062634.016,2409.3496,N,12039.6899,E,1,06,1.6,98.3,M,,,,0000*3E
$GPGSA,A,3,26,24,29,21,10,07,,,,,,,2.7,1.6,2.2*3C
$GPRMC,062634.016,A,2409.3496,N,12039.6899,E,0.00,,130407,,,A*73
$GPGGA,062635.016,2409.3496,N,12039.6899,E,1,06,1.6,98.3,M,,,,0000*3F
$GPGSA,A,3,26,24,29,21,10,07,,,,,,,2.7,1.6,2.2*3C
$GPGSV,3,1,11,24,80,298,31,26,52,012,40,09,46,175,13,29,42,025,36*75
$GPGSV,3,2,11,21,38,317,41,10,29,076,33,22,25,310,,06,23,235,14*78
$GPGSV,3,3,11,07,21,250,30,18,15,302,23,27,06,038,*4C
$GPRMC,062635.016,A,2409.3496,N,12039.6899,E,0.00,,130407,,,A*72
$GPGGA,062636.016,2409.3496,N,12039.6899,E,1,06,1.6,98.3,M,,,,0000*3C
$GPGSA,A,3,26,24,29,21,10,07,,,,,,,2.7,1.6,2.2*3C
$GPRMC,062636.016,A,2409.3496,N,12039.6899,E,0.00,,130407,,,A*71
$GPGGA,062637.016,2409.3496,N,12039.6899,E,1,06,1.6,98.3,M,,,,0000*3D
$GPGSA,A,3,26,24,29,21,10,07,,,,,,,2.7,1.6,2.2*3C
$GPRMC,062637.016,A,2409.3496,N,12039.6899,E,0.00,,130407,,,A*70
$GPGGA,062638.016,2409.3496,N,12039.6899,E,1,06,1.6,98.3,M,,,,0000*32
$GPGSA,A,3,26,24,29,21,10,07,,,,,,,2.7,1.6,2.2*3C
$GPRMC,062638.016,A,2409.3496,N,12039.6899,E,0.00,,130407,,,A*7F
$GPGGA,062639.016,2409.3496,N,12039.6899,E,1,06,1.6,98.3,M,,,,0000*33
$GPGSA,A,3,26,24,29,21,10,07,,,,,,,2.7,1.6,2.2*3C
$GPRMC,062639.016,A,2409.3496,N,12039.6899,E,0.00,,130407,,,A*7E
$GPGGA,062640.016,2409.3520,N,12039.6878,E,1,06,1.6,89.3,M,,,,0000*3E
$GPGSA,A,3,26,24,29,21,10,07,,,,,,,2.7,1.6,2.2*3C
$GPGSV,3,1,11,24,80,298,29,26,52,012,41,09,46,175,11,29,42,025,38*71
$GPGSV,3,2,11,21,38,317,41,10,29,076,32,22,25,310,,06,23,235,14*79
$GPGSV,3,3,11,07,21,250,27,18,15,302,22,27,06,038,*4B
$GPRMC,062640.016,A,2409.3520,N,12039.6878,E,0.00,,130407,,,A*73
$GPGGA,062641.016,2409.3520,N,12039.6878,E,1,06,1.6,89.3,M,,,,0000*3F
$GPGSA,A,3,26,24,29,21,10,07,,,,,,,2.7,1.6,2.2*3C
$GPRMC,062641.016,A,2409.3520,N,12039.6878,E,0.00,,130407,,,A*72
$GPGGA,062642.016,2409.3520,N,12039.6878,E,1,06,1.6,89.3,M,,,,0000*3C
$GPGSA,A,3,26,24,29,21,10,07,,,,,,,2.7,1.6,2.2*3C
$GPRMC,062642.016,A,2409.3520,N,12039.6878,E,0.00,,130407,,,A*71
$GPGGA,062643.016,2409.3520,N,12039.6878,E,1,06,1.6,89.3,M,,,,0000*3D
$GPGSA,A,3,26,24,29,21,10,07,,,,,,,2.7,1.6,2.2*3C
$GPRMC,062643.016,A,2409.3520,N,12039.6878,E,0.00,,130407,,,A*70
$GPGGA,062644.016,2409.3520,N,12039.6878,E,1,06,1.6,89.3,M,,,,0000*3A
$GPGSA,A,3,26,24,29,21,10,07,,,,,,,2.7,1.6,2.2*3C
$GPRMC,062644.016,A,2409.3520,N,12039.6878,E,0.00,,130407,,,A*77
$GPGGA,062645.015,2409.3520,N,12039.6878,E,1,06,1.6,89.3,M,,,,0000*38
$GPGSA,A,3,26,24,29,21,10,07,,,,,,,2.7,1.6,2.2*3C
$GPGSV,3,1,11,24,80,298,25,26,52,012,42,09,46,175,11,29,42,025,40*71
$GPGSV,3,2,11,21,38,317,44,10,29,076,34,22,25,310,,06,23,235,14*7A
$GPGSV,3,3,11,07,21,250,27,18,15,302,27,27,06,038,*4E
$GPRMC,062645.015,A,2409.3520,N,12039.6878,E,0.00,,130407,,,A*75
$GPGGA,062646.015,2409.3520,N,12039.6878,E,1,06,1.6,89.3,M,,,,0000*3B
$GPGSA,A,3,26,24,29,21,10,07,,,,,,,2.7,1.6,2.2*3C
$GPRMC,062646.015,A,2409.3520,N,12039.6878,E,0.00,,130407,,,A*76
$GPGGA,062647.015,2409.3520,N,12039.6878,E,1,06,1.6,89.3,M,,,,0000*3A
$GPGSA,A,3,26,24,29,21,10,07,,,,,,,2.7,1.6,2.2*3C
$GPRMC,062647.015,A,2409.3520,N,12039.6878,E,0.00,,130407,,,A*77
$GPGGA,062648.015,2409.3520,N,12039.6878,E,1,06,1.6,89.3,M,,,,0000*35
$GPGSA,A,3,26,24,29,21,10,07,,,,,,,2.7,1.6,2.2*3C
$GPRMC,062648.015,A,2409.3520,N,12039.6878,E,0.00,,130407,,,A*78
$GPGGA,062649.015,2409.3520,N,12039.6878,E,1,06,1.6,89.3,M,,,,0000*34
$GPGSA,A,3,26,24,29,21,10,07,,,,,,,2.7,1.6,2.2*3C
$GPRMC,062649.015,A,2409.3520,N,12039.6878,E,0.00,,130407,,,A*79
$GPGGA,062650.015,2409.3520,N,12039.6878,E,1,06,1.6,89.3,M,,,,0000*3C
$GPGSA,A,3,26,24,29,21,10,07,,,,,,,2.7,1.6,2.2*3C
$GPGSV,3,1,10,24,80,297,23,26,52,012,42,09,46,175,18,29,42,025,38*7F
$GPGSV,3,2,10,21,38,317,43,10,29,077,39,06,22,234,,07,21,250,30*70
$GPGSV,3,3,10,18,15,302,29,27,06,038,*77
$GPRMC,062650.015,A,2409.3520,N,12039.6878,E,0.00,,130407,,,A*71
$GPGGA,062651.015,2409.3520,N,12039.6878,E,1,06,1.6,89.3,M,,,,0000*3D
$GPGSA,A,3,26,24,29,21,10,07,,,,,,,2.7,1.6,2.2*3C
$GPRMC,062651.015,A,2409.3520,N,12039.6878,E,0.00,,130407,,,A*70
$GPGGA,062652.015,2409.3520,N,12039.6878,E,1,06,1.6,89.3,M,,,,0000*3E
$GPGSA,A,3,26,24,29,21,10,07,,,,,,,2.7,1.6,2.2*3C
$GPRMC,062652.015,A,2409.3520,N,12039.6878,E,0.00,,130407,,,A*73
$GPGGA,062653.015,2409.3523,N,12039.6894,E,1,07,1.4,101.0,M,,,,0000*0F
$GPGSA,A,3,26,24,29,21,10,06,07,,,,,,2.6,1.4,2.2*39
$GPRMC,062653.015,A,2409.3523,N,12039.6894,E,0.00,,130407,,,A*73
$GPGGA,062654.015,2409.3523,N,12039.6894,E,1,07,1.4,101.0,M,,,,0000*08
$GPGSA,A,3,26,24,29,21,10,06,07,,,,,,2.6,1.4,2.2*39
$GPRMC,062654.015,A,2409.3523,N,12039.6894,E,0.00,,130407,,,A*74
$GPGGA,062655.015,2409.3523,N,12039.6894,E,1,06,1.6,101.0,M,,,,0000*0A
$GPGSA,A,3,26,24,29,21,10,07,,,,,,,2.7,1.6,2.2*3C
$GPGSV,3,1,10,24,80,297,25,26,52,012,39,09,46,175,16,29,42,025,37*74
$GPGSV,3,2,10,21,38,317,45,10,29,077,35,06,22,234,21,07,21,250,26*7E
$GPGSV,3,3,10,18,15,302,26,27,06,038,*78
$GPRMC,062655.015,A,2409.3523,N,12039.6894,E,0.00,,130407,,,A*75
$GPGGA,062656.015,2409.3523,N,12039.6894,E,1,06,1.6,111.3,M,,,,0000*0B
$GPGSA,A,3,26,24,29,21,10,07,,,,,,,2.7,1.6,2.2*3C
$GPRMC,062656.015,A,2409.3523,N,12039.6894,E,0.00,,130407,,,A*76
$GPGGA,062657.015,2409.3523,N,12039.6894,E,1,07,1.4,111.3,M,,,,0000*09
$GPGSA,A,3,26,24,29,21,10,06,07,,,,,,2.6,1.4,2.2*39
$GPRMC,062657.015,A,2409.3523,N,12039.6894,E,0.00,,130407,,,A*77
$GPGGA,062658.015,2409.3523,N,12039.6894,E,1,07,1.4,111.3,M,,,,0000*06
$GPGSA,A,3,26,24,29,21,10,06,07,,,,,,2.6,1.4,2.2*39
$GPRMC,062658.015,A,2409.3523,N,12039.6894,E,0.00,,130407,,,A*78
$GPGGA,062659.015,2409.3523,N,12039.6894,E,1,07,1.4,111.3,M,,,,0000*07
$GPGSA,A,3,26,24,29,21,10,06,07,,,,,,2.6,1.4,2.2*39
$GPRMC,062659.015,A,2409.3523,N,12039.6894,E,0.00,,130407,,,A*79
$GPGGA,062700.015,2409.3523,N,12039.6894,E,1,07,1.4,111.3,M,,,,0000*0A
$GPGSA,A,3,26,24,29,21,10,06,07,,,,,,2.6,1.4,2.2*39
$GPGSV,3,1,10,24,80,297,25,26,52,012,39,09,46,175,14,29,42,025,38*79
$GPGSV,3,2,10,21,38,317,44,10,29,077,38,06,22,234,26,07,21,250,29*7A
$GPGSV,3,3,10,18,15,302,17,27,06,038,*7A
$GPRMC,062700.015,A,2409.3523,N,12039.6894,E,0.00,,130407,,,A*74
$GPGGA,062701.015,2409.3523,N,12039.6894,E,1,07,1.4,111.3,M,,,,0000*0B
$GPGSA,A,3,26,24,29,21,10,06,07,,,,,,2.6,1.4,2.2*39
$GPRMC,062701.015,A,2409.3523,N,12039.6894,E,0.00,,130407,,,A*75
$GPGGA,062702.014,2409.3523,N,12039.6894,E,1,06,2.4,111.3,M,,,,0000*0B
$GPGSA,A,3,26,29,21,10,06,07,,,,,,,6.6,2.4,6.2*3C
$GPRMC,062702.014,A,2409.3523,N,12039.6894,E,0.00,,130407,,,A*77
$GPGGA,062703.014,2409.3523,N,12039.6894,E,1,06,2.4,111.3,M,,,,0000*0A
$GPGSA,A,3,26,29,21,10,06,07,,,,,,,6.6,2.4,6.2*3C
$GPRMC,062703.014,A,2409.3523,N,12039.6894,E,0.00,,130407,,,A*76
$GPGGA,062704.014,2409.3523,N,12039.6894,E,1,07,1.4,111.3,M,,,,0000*0F
$GPGSA,A,3,26,24,29,21,10,06,07,,,,,,2.6,1.4,2.2*39
$GPRMC,062704.014,A,2409.3523,N,12039.6894,E,0.00,,130407,,,A*71
$GPGGA,062705.014,2409.3523,N,12039.6894,E,1,07,1.4,111.3,M,,,,0000*0E
$GPGSA,A,3,26,24,29,21,10,06,07,,,,,,2.6,1.4,2.2*39
$GPGSV,3,1,10,24,80,297,22,26,52,012,39,09,46,175,13,29,42,025,37*76
$GPGSV,3,2,10,21,38,317,43,10,29,077,35,06,22,234,27,07,21,250,30*79
$GPGSV,3,3,10,18,15,302,16,27,06,038,*7B
$GPRMC,062705.014,A,2409.3523,N,12039.6894,E,0.00,,130407,,,A*70
$GPGGA,062706.014,2409.3523,N,12039.6894,E,1,07,1.4,111.3,M,,,,0000*0D
$GPGSA,A,3,26,24,29,21,10,06,07,,,,,,2.6,1.4,2.2*39
$GPRMC,062706.014,A,2409.3523,N,12039.6894,E,0.00,,130407,,,A*73
$GPGGA,062707.014,2409.3523,N,12039.6894,E,1,07,1.4,111.3,M,,,,0000*0C
$GPGSA,A,3,26,24,29,21,10,06,07,,,,,,2.6,1.4,2.2*39
$GPRMC,062707.014,A,2409.3523,N,12039.6894,E,0.00,,130407,,,A*72
$GPGGA,062708.014,2409.3523,N,12039.6894,E,1,07,1.4,111.3,M,,,,0000*03
$GPGSA,A,3,26,24,29,21,10,06,07,,,,,,2.6,1.4,2.2*39
$GPRMC,062708.014,A,2409.3523,N,12039.6894,E,0.00,,130407,,,A*7D
$GPGGA,062709.014,2409.3523,N,12039.6894,E,1,07,1.4,111.3,M,,,,0000*02
$GPGSA,A,3,26,24,29,21,10,06,07,,,,,,2.6,1.4,2.2*39
$GPRMC,062709.014,A,2409.3523,N,12039.6894,E,0.00,,130407,,,A*7C
$GPGGA,062710.014,2409.3523,N,12039.6894,E,1,07,1.4,111.3,M,,,,0000*0A
$GPGSA,A,3,26,24,29,21,10,06,07,,,,,,2.6,1.4,2.2*39
$GPGSV,3,1,10,24,80,297,22,26,52,012,40,09,46,175,13,29,42,025,39*76
$GPGSV,3,2,10,21,38,317,40,10,29,077,37,06,22,234,23,07,21,250,26*7B
$GPGSV,3,3,10,18,15,302,17,27,06,038,*7A
$GPRMC,062710.014,A,2409.3523,N,12039.6894,E,0.00,,130407,,,A*74
$GPGGA,062711.014,2409.3523,N,12039.6894,E,1,07,1.4,111.3,M,,,,0000*0B
$GPGSA,A,3,26,24,29,21,10,06,07,,,,,,2.6,1.4,2.2*39
$GPRMC,062711.014,A,2409.3523,N,12039.6894,E,0.00,,130407,,,A*75
$GPGGA,062712.014,2409.3523,N,12039.6894,E,1,07,1.4,111.3,M,,,,0000*08
$GPGSA,A,3,26,24,29,21,10,06,07,,,,,,2.6,1.4,2.2*39
$GPRMC,062712.014,A,2409.3523,N,12039.6894,E,0.00,,130407,,,A*76
$GPGGA,062713.014,2409.3523,N,12039.6894,E,1,07,1.4,111.3,M,,,,0000*09
$GPGSA,A,3,26,24,29,21,10,06,07,,,,,,2.6,1.4,2.2*39
$GPRMC,062713.014,A,2409.3523,N,12039.6894,E,0.00,,130407,,,A*77
$GPGGA,062714.014,2409.3523,N,12039.6894,E,1,07,1.4,111.3,M,,,,0000*0E
$GPGSA,A,3,26,24,29,21,10,06,07,,,,,,2.6,1.4,2.2*39
$GPRMC,062714.014,A,2409.3523,N,12039.6894,E,0.00,,130407,,,A*70
$GPGGA,062715.014,2409.3523,N,12039.6894,E,1,07,1.4,111.3,M,,,,0000*0F
$GPGSA,A,3,26,24,29,21,10,06,07,,,,,,2.6,1.4,2.2*39
$GPGSV,3,1,10,24,80,297,23,26,52,012,37,09,46,175,13,29,42,025,39*77
$GPGSV,3,2,10,21,38,317,37,10,29,077,38,06,22,234,23,07,21,250,29*7B
$GPGSV,3,3,10,18,15,302,17,27,06,038,*7A
$GPRMC,062715.014,A,2409.3523,N,12039.6894,E,0.00,,130407,,,A*71
$GPGGA,062716.014,2409.3523,N,12039.6894,E,1,07,1.4,111.3,M,,,,0000*0C
$GPGSA,A,3,26,24,29,21,10,06,07,,,,,,2.6,1.4,2.2*39
$GPRMC,062716.014,A,2409.3523,N,12039.6894,E,0.00,,130407,,,A*72
$GPGGA,062717.014,2409.3523,N,12039.6894,E,1,07,1.4,111.3,M,,,,0000*0D
$GPGSA,A,3,26,24,29,21,10,06,07,,,,,,2.6,1.4,2.2*39
$GPRMC,062717.014,A,2409.3523,N,12039.6894,E,0.00,,130407,,,A*73
$GPGGA,062718.014,2409.3523,N,12039.6894,E,1,07,1.4,111.3,M,,,,0000*02
$GPGSA,A,3,26,24,29,21,10,06,07,,,,,,2.6,1.4,2.2*39
$GPRMC,062718.014,A,2409.3523,N,12039.6894,E,0.00,,130407,,,A*7C
$GPGGA,062719.013,2409.3523,N,12039.6894,E,1,07,1.4,111.3,M,,,,0000*04
$GPGSA,A,3,26,24,29,21,10,06,07,,,,,,2.6,1.4,2.2*39
$GPRMC,062719.013,A,2409.3523,N,12039.6894,E,0.00,,130407,,,A*7A
$GPGGA,062720.013,2409.3523,N,12039.6894,E,1,07,1.4,111.3,M,,,,0000*0E
$GPGSA,A,3,26,24,29,21,10,06,07,,,,,,2.6,1.4,2.2*39
$GPGSV,3,1,10,24,80,297,27,26,52,012,40,09,46,175,13,29,42,025,43*7E
$GPGSV,3,2,10,21,38,317,39,10,29,077,43,06,22,234,27,07,21,250,29*7D
$GPGSV,3,3,10,18,15,302,24,27,06,038,*7A
$GPRMC,062720.013,A,2409.3523,N,12039.6894,E,0.00,,130407,,,A*70
$GPGGA,062721.013,2409.3523,N,12039.6894,E,1,07,1.4,111.3,M,,,,0000*0F
$GPGSA,A,3,26,24,29,21,10,06,07,,,,,,2.6,1.4,2.2*39
$GPRMC,062721.013,A,2409.3523,N,12039.6894,E,0.00,,130407,,,A*71
$GPGGA,062722.013,2409.3523,N,12039.6894,E,1,07,1.4,111.3,M,,,,0000*0C
$GPGSA,A,3,26,24,29,21,10,06,07,,,,,,2.6,1.4,2.2*39
$GPRMC,062722.013,A,2409.3523,N,12039.6894,E,0.00,,130407,,,A*72
$GPGGA,062723.013,2409.3523,N,12039.6894,E,1,07,1.4,111.3,M,,,,0000*0D
$GPGSA,A,3,26,24,29,21,10,06,07,,,,,,2.6,1.4,2.2*39
$GPRMC,062723.013,A,2409.3523,N,12039.6894,E,0.00,,130407,,,A*73
$GPGGA,062724.013,2409.3523,N,12039.6894,E,1,07,1.4,111.3,M,,,,0000*0A
$GPGSA,A,3,26,24,29,21,10,06,07,,,,,,2.6,1.4,2.2*39
$GPRMC,062724.013,A,2409.3523,N,12039.6894,E,0.00,,130407,,,A*74
$GPGGA,062725.013,2409.3544,N,12039.6893,E,1,07,1.4,100.3,M,,,,0000*0D
$GPGSA,A,3,26,24,29,21,10,06,07,,,,,,2.6,1.4,2.2*39
$GPGSV,3,1,10,24,80,297,30,26,52,012,38,09,46,175,,29,42,025,42*74
$GPGSV,3,2,10,21,38,317,42,10,29,077,41,06,22,234,22,07,21,250,28*77
$GPGSV,3,3,10,18,15,302,20,27,06,038,*7E
$GPRMC,062725.013,A,2409.3544,N,12039.6893,E,0.00,,130407,,,A*73
$GPGGA,062726.013,2409.3544,N,12039.6893,E,1,07,1.4,100.3,M,,,,0000*0E
$GPGSA,A,3,26,24,29,21,10,06,07,,,,,,2.6,1.4,2.2*39
$GPRMC,062726.013,A,2409.3544,N,12039.6893,E,0.00,,130407,,,A*70
$GPGGA,062727.013,2409.3544,N,12039.6893,E,1,07,1.4,100.3,M,,,,0000*0F
$GPGSA,A,3,26,24,29,21,10,06,07,,,,,,2.6,1.4,2.2*39
$GPRMC,062727.013,A,2409.3544,N,12039.6893,E,0.00,,130407,,,A*71
$GPGGA,062728.013,2409.3544,N,12039.6893,E,1,07,1.4,100.3,M,,,,0000*00
$GPGSA,A,3,26,24,29,21,10,06,07,,,,,,2.6,1.4,2.2*39
$GPRMC,062728.013,A,2409.3544,N,12039.6893,E,0.00,,130407,,,A*7E
$GPGGA,062729.013,2409.3544,N,12039.6893,E,1,06,1.6,100.3,M,,,,0000*02
$GPGSA,A,3,26,24,29,21,10,07,,,,,,,2.7,1.6,2.2*3C
$GPRMC,062729.013,A,2409.3544,N,12039.6893,E,0.00,,130407,,,A*7F
$GPGGA,062730.013,2409.3544,N,12039.6893,E,1,06,1.6,100.3,M,,,,0000*0A
$GPGSA,A,3,26,24,29,21,10,07,,,,,,,2.7,1.6,2.2*3C
$GPGSV,3,1,10,24,80,297,30,26,52,012,39,09,46,175,21,29,42,025,42*76
$GPGSV,3,2,10,21,38,317,43,10,29,077,42,06,22,234,21,07,21,250,29*77
$GPGSV,3,3,10,18,15,302,19,27,06,038,*74
$GPRMC,062730.013,A,2409.3544,N,12039.6893,E,0.00,,130407,,,A*77
