$GPGGA,060950.764,2409.7207,N,12039.0184,E,1,07,1.1,68.8,M,,,,0000*38
$GPGSA,A,3,07,24,26,29,09,10,21,,,,,,2.5,1.1,2.2*30
$GPRMC,060950.764,A,2409.7207,N,12039.0184,E,0.00,,130407,,,A*77
$GPGGA,060951.764,2409.7207,N,12039.0184,E,1,07,1.1,68.8,M,,,,0000*39
$GPGSA,A,3,07,24,26,29,09,10,21,,,,,,2.5,1.1,2.2*30
$GPRMC,060951.764,A,2409.7207,N,12039.0184,E,0.00,,130407,,,A*76
$GPGGA,060952.764,2409.7207,N,12039.0184,E,1,07,1.1,68.8,M,,,,0000*3A
$GPGSA,A,3,07,24,26,29,09,10,21,,,,,,2.5,1.1,2.2*30
$GPGSV,3,1,12,24,73,321,27,26,59,004,36,29,48,019,34,09,38,177,31*7F
$GPGSV,3,2,12,10,32,068,30,21,31,319,34,06,26,242,27,07,24,258,32*77
5,,22,21,304,,18,19,302,26,27,11,042,*79
$GPRMC,060952.764,A,2409.7207,N,12039.0184,E,0.00,,130407,,,A*75
$GPGGA,060953.764,2409.7225,N,12039.0200,E,1,08,1.1,78.3,M,,,,0000*31
$GPGSA,A,3,07,24,26,29,09,10,06,21,,,,,2.4,1.1,2.2*37
$GPRMC,060953.764,A,2409.7225,N,12039.0200,E,0.00,,130407,,,A*7B
$GPGGA,060954.764,2409.7225,N,12039.0200,E,1,08,1.1,78.3,M,,,,0000*36
$GPGSA,A,3,07,24,26,29,09,10,06,21,,,,,2.4,1.1,2.2*37
$GPRMC,060954.764,A,2409.7225,N,12039.0200,E,0.00,,130407,,,A*7C
$GPGGA,060955.764,2409.7225,N,12039.0200,E,1,08,1.1,78.3,M,,,,0000*37
$GPGSA,A,3,07,24,26,29,09,10,06,21,,,,,2.4,1.1,2.2*37
$GPRMC,060955.764,A,2409.7225,N,12039.0200,E,0.00,,130407,,,A*7D
$GPGGA,060956.764,2409.7225,N,12039.0200,E,1,08,1.1,78.3,M,,,,0000*34
$GPGSA,A,3,07,24,26,29,09,10,06,21,,,,,2.4,1.1,2.2*37
$GPRMC,060956.764,A,2409.7225,N,12039.0200,E,0.00,,130407,,,A*7E
$GPGGA,060957.764,2409.7225,N,12039.0200,E,1,08,1.1,78.3,M,,,,0000*35
$GPGSA,A,3,07,24,26,29,09,10,06,21,,,,,2.4,1.1,2.2*37
$GPGSV,3,1,12,24,73,321,22,26,59,004,36,29,48,019,37,09,38,177,30*78
$GPGSV,3,2,12,10,32,068,26,21,31,319,33,06,26,242,29,07,24,258,32*79
$GPGSV,3,3,12,17,23,135,,22,21,304,,18,19,302,30,27,11,042,*7E
$GPRMC,060957.764,A,2409.7225,N,12039.0200,E,0.00,,130407,,,A*7F
$GPGGA,060958.764,2409.7225,N,12039.0200,E,1,08,1.1,78.3,M,,,,0000*3A
$GPGSA,A,3,07,24,26,29,09,10,06,21,,,,,2.4,1.1,2.2*37
$GPRMC,060958.764,A,2409.7225,N,12039.0200,E,0.00,,130407,,,A*70
$GPGGA,060959.764,2409.7225,N,12039.0200,E,1,08,1.1,78.3,M,,,,0000*3B
$GPGSA,A,3,07,24,26,29,09,10,06,21,,,,,2.4,1.1,2.2*37
$GPRMC,060959.764,A,2409.7225,N,12039.0200,E,0.00,,130407,,,A*71
$GPGGA,061000.764,2409.7225,N,12039.0200,E,1,08,1.1,78.3,M,,,,0000*3F
$GPGSA,A,3,07,24,26,29,09,10,06,21,,,,,2.4,1.1,2.2*37
$GPRMC,061000.764,A,2409.7225,N,12039.0200,E,0.00,,130407,,,A*75
$GPGGA,061001.764,2409.7225,N,12039.0200,E,1,08,1.1,78.3,M,,,,0000*3E
$GPGSA,A,3,07,24,26,29,09,10,06,21,,,,,2.4,1.1,2.2*37
$GPRMC,061001.764,A,2409.7225,N,12039.0200,E,0.00,,130407,,,A*74
$GPGGA,061002.764,2409.7225,N,12039.0200,E,1,08,1.1,78.3,M,,,,0000*3D
$GPGSA,A,3,07,24,26,29,09,10,06,21,,,,,2.4,1.1,2.2*37
$GPGSV,3,1,12,24,73,321,27,26,59,004,36,29,48,019,37,09,38,177,27*7B
$GPGSV,3,2,12,10,32,068,27,21,31,319,32,06,26,242,27,07,24,258,29*7D
$GPGSV,3,3,12,17,23,135,,22,21,304,,18,19,302,31,27,11,042,*7F
$GPRMC,061002.764,A,2409.7225,N,12039.0200,E,0.00,,130407,,,A*77
$GPGGA,061003.764,2409.7225,N,12039.0200,E,1,08,1.1,78.3,M,,,,0000*3C
$GPGSA,A,3,07,24,26,29,09,10,06,21,,,,,2.4,1.1,2.2*37
$GPRMC,061003.764,A,2409.7225,N,12039.0200,E,0.00,,130407,,,A*76
$GPGGA,061004.764,2409.7225,N,12039.0200,E,1,08,1.1,78.3,M,,,,0000*3B
$GPGSA,A,3,07,24,26,29,09,10,06,21,,,,,2.4,1.1,2.2*37
$GPRMC,061004.764,A,2409.7225,N,12039.0200,E,0.00,,130407,,,A*71
$GPGGA,061005.764,2409.7225,N,12039.0200,E,1,08,1.1,78.3,M,,,,0000*3A
$GPGSA,A,3,07,24,26,29,09,10,06,21,,,,,2.4,1.1,2.2*37
$GPRMC,061005.764,A,2409.7225,N,12039.0200,E,0.00,,130407,,,A*70
$GPGGA,061006.763,2409.7225,N,12039.0200,E,1,08,1.1,78.3,M,,,,0000*3E
$GPGSA,A,3,07,24,26,29,09,10,06,21,,,,,2.4,1.1,2.2*37
$GPRMC,061006.763,A,2409.7225,N,12039.0200,E,0.00,,130407,,,A*74
$GPGGA,061007.763,2409.7225,N,12039.0200,E,1,08,1.1,78.3,M,,,,0000*3F
$GPGSA,A,3,07,24,26,29,09,10,06,21,,,,,2.4,1.1,2.2*37
$GPGSV,3,1,12,24,73,321,22,26,59,004,35,29,48,019,38,09,38,177,29*7C
$GPGSV,3,2,12,10,32,068,28,21,31,319,31,06,26,242,21,07,24,258,32*7D
,3,12,17,23,135,,22,21,304,,18,19,302,30,27,11,042,*7E
$GPRMC,061007.763,A,2409.7225,N,12039.0200,E,0.00,,130407,,,A*75
$GPGGA,061008.763,2409.7225,N,12039.0200,E,1,08,1.1,78.3,M,,,,0000*30
$GPGSA,A,3,07,24,26,29,09,10,06,21,,,,,2.4,1.1,2.2*37
$GPRMC,061008.763,A,2409.7225,N,12039.0200,E,0.00,,130407,,,A*7A
$GPGGA,061009.763,2409.7225,N,12039.0200,E,1,08,1.1,78.3,M,,,,0000*31
$GPGSA,A,3,07,24,26,29,09,10,06,21,,,,,2.4,1.1,2.2*37
$GPRMC,061009.763,A,2409.7225,N,12039.0200,E,0.00,,130407,,,A*7B
$GPGGA,061010.763,2409.7225,N,12039.0200,E,1,08,1.1,78.3,M,,,,0000*39
$GPGSA,A,3,07,24,26,29,09,10,06,21,,,,,2.4,1.1,2.2*37
$GPRMC,061010.763,A,2409.7225,N,12039.0200,E,0.00,,130407,,,A*73
$GPGGA,061011.763,2409.7224,N,12039.0186,E,1,08,1.1,88.5,M,,,,0000*3D
$GPGSA,A,3,07,24,26,29,09,10,06,21,,,,,2.4,1.1,2.2*37
$GPRMC,061011.763,A,2409.7224,N,12039.0186,E,0.00,,130407,,,A*7E
$GPGGA,061012.763,2409.7224,N,12039.0186,E,1,08,1.1,88.5,M,,,,0000*3E
$GPGSA,A,3,07,24,26,29,09,10,06,21,,,,,2.4,1.1,2.2*37
$GPGSV,3,1,12,24,73,321,23,26,59,004,36,29,48,019,38,09,38,177,31*77
$GPGSV,3,2,12,10,32,068,29,21,31,319,30,06,26,242,20,07,24,258,35*7B
$GPGSV,3,3,12,17,23,135,,22,21,304,,18,19,302,29,27,11,042,*76
$GPRMC,061012.763,A,2409.7224,N,12039.0186,E,0.00,,130407,,,A*7D
$GPGGA,061013.763,2409.7224,N,12039.0186,E,1,08,1.1,88.5,M,,,,0000*3F
$GPGSA,A,3,07,24,26,29,09,10,06,21,,,,,2.4,1.1,2.2*37
$GPRMC,061013.763,A,2409.7224,N,12039.0186,E,0.00,,130407,,,A*7C
$GPGGA,061014.763,2409.7224,N,12039.0186,E,1,08,1.1,88.5,M,,,,0000*38
$GPGSA,A,3,07,24,26,29,09,10,06,21,,,,,2.4,1.1,2.2*37
$GPRMC,061014.763,A,2409.7224,N,12039.0186,E,0.00,,130407,,,A*7B
$GPGGA,061015.763,2409.7224,N,12039.0186,E,1,08,1.1,88.5,M,,,,0000*39
$GPGSA,A,3,07,24,26,29,09,10,06,21,,,,,2.4,1.1,2.2*37
$GPRMC,061015.763,A,2409.7224,N,12039.0186,E,0.00,,130407,,,A*7A
$GPGGA,061016.763,2409.7224,N,12039.0186,E,1,08,1.1,88.5,M,,,,0000*3A
$GPGSA,A,3,07,24,26,29,09,10,06,21,,,,,2.4,1.1,2.2*37
$GPRMC,061016.763,A,2409.7224,N,12039.0186,E,0.00,,130407,,,A*79
$GPGGA,061017.763,2409.7224,N,12039.0186,E,1,08,1.1,88.5,M,,,,0000*3B
$GPGSA,A,3,07,24,26,29,09,10,06,21,,,,,2.4,1.1,2.2*37
$GPGSV,3,1,12,24,73,321,22,26,59,004,37,29,48,019,38,09,38,177,29*7E
$GPGSV,3,2,12,10,32,068,26,21,31,319,31,06,26,242,19,07,24,258,37*7D
$GPGSV,3,3,12,17,23,135,,22,21,304,,18,19,302,30,27,11,042,*7E
$GPRMC,061017.763,A,2409.7224,N,12039.0186,E,0.00,,130407,,,A*78
$GPGGA,061018.763,2409.7224,N,12039.0186,E,1,08,1.1,88.5,M,,,,0000*34
$GPGSA,A,3,07,24,26,29,09,10,06,21,,,,,2.4,1.1,2.2*37
$GPRMC,061018.763,A,2409.7224,N,12039.0186,E,0.00,,130407,,,A*77
$GPGGA,061019.763,2409.7224,N,12039.0186,E,1,08,1.1,88.5,M,,,,0000*35
$GPGSA,A,3,07,24,26,29,09,10,06,21,,,,,2.4,1.1,2.2*37
$GPRMC,061019.763,A,2409.7224,N,12039.0186,E,0.00,,130407,,,A*76
$GPGGA,061020.763,2409.7224,N,12039.0186,E,1,08,1.1,88.5,M,,,,0000*3F
$GPGSA,A,3,07,24,26,29,09,10,06,21,,,,,2.4,1.1,2.2*37
$GPRMC,061020.763,A,2409.7224,N,12039.0186,E,0.00,,130407,,,A*7C
$GPGGA,061021.763,2409.7224,N,12039.0186,E,1,08,1.1,88.5,M,,,,0000*3E
$GPGSA,A,3,07,24,26,29,09,10,06,21,,,,,2.4,1.1,2.2*37
$GPRMC,061021.763,A,2409.7224,N,12039.0186,E,0.00,,130407,,,A*7D
$GPGGA,061022.763,2409.7224,N,12039.0186,E,1,08,1.1,88.5,M,,,,0000*3D
$GPGSA,A,3,07,24,26,29,09,10,06,21,,,,,2.4,1.1,2.2*37
$GPGSV,3,1,12,24,74,321,19,26,59,004,36,29,48,020,38,09,38,177,30*72
$GPGSV,3,2,12,21,32,319,26,10,31,068,28,06,26,242,23,07,24,258,31*7A
,3,12,17,22,135,,22,21,304,,18,19,302,32,27,11,041,*7E
$GPRMC,061022.763,A,2409.7224,N,12039.0186,E,0.00,,130407,,,A*7E
$GPGGA,061023.762,2409.7224,N,12039.0186,E,1,08,1.1,88.5,M,,,,0000*3D
$GPGSA,A,3,07,24,26,29,09,10,06,21,,,,,2.4,1.1,2.2*37
$GPRMC,061023.762,A,2409.7224,N,12039.0186,E,0.00,,130407,,,A*7E
$GPGGA,061024.762,2409.7226,N,12039.0184,E,1,08,1.1,90.1,M,,,,0000*37
$GPGSA,A,3,07,24,26,29,09,10,06,21,,,,,2.4,1.1,2.2*37
$GPRMC,061024.762,A,2409.7226,N,12039.0184,E,1.79,325.02,130407,,,A*6E
$GPGGA,061025.762,2409.7230,N,12039.0181,E,1,08,1.1,90.2,M,,,,0000*37
$GPGSA,A,3,07,24,26,29,09,10,06,21,,,,,2.4,1.1,2.2*37
$GPRMC,061025.762,A,2409.7230,N,12039.0181,E,0.00,,130407,,,A*7A
$GPGGA,061026.762,2409.7230,N,12039.0181,E,1,08,1.1,90.2,M,,,,0000*34
$GPGSA,A,3,07,24,26,29,09,10,06,21,,,,,2.4,1.1,2.2*37
$GPRMC,061026.762,A,2409.7230,N,12039.0181,E,0.00,,130407,,,A*79
$GPGGA,061027.762,2409.7230,N,12039.0181,E,1,08,1.1,90.2,M,,,,0000*35
$GPGSA,A,3,07,24,26,29,09,10,06,21,,,,,2.4,1.1,2.2*37
$GPGSV,3,1,12,24,74,321,24,26,59,004,35,29,48,020,35,09,38,177,29*7A
$GPGSV,3,2,12,21,32,319,22,10,31,068,30,06,26,242,25,07,24,258,35*75
$GPGSV,3,3,12,17,22,135,,22,21,304,,18,19,302,33,27,11,041,*7F
$GPRMC,061027.762,A,2409.7230,N,12039.0181,E,0.00,,130407,,,A*78
$GPGGA,061028.762,2409.7230,N,12039.0181,E,1,08,1.1,90.2,M,,,,0000*3A
$GPGSA,A,3,07,24,26,29,09,10,06,21,,,,,2.4,1.1,2.2*37
$GPRMC,061028.762,A,2409.7230,N,12039.0181,E,0.00,,130407,,,A*77
