55525.VVÆ&F–æ–&†Ææc&6†æf–†ÆVcÆVÆVæÆ&fæVÆÖcÆÆÆ¦vÖ$GPGSA,A,3,24,26,10,06,07,,,,,,,,6.2,5.0,3.8*3A
$GPRMC,055525.955,A,2409.9128,N,12038.6198,E,0.03,245.59,130407,,,A*6B
$GPGGA,055526.955,2409.9109,N,12038.6230,E,1,06,4.1,143.3,M,,,,0000*00
$GPGSA,A,3,24,26,29,10,06,07,,,,,,,5.5,4.1,3.6*3B
$GPRMC,055526.955,A,2409.9109,N,12038.6230,E,0.00,,130407,,,A*78
$GPGGA,055527.955,2409.9218,N,12038.6166,E,1,06,4.1,133.1,M,,,,0000*07
$GPGSA,A,3,24,26,29,10,06,07,,,,,,,5.5,4.1,3.6*3B
$GPRMC,055527.955,A,2409.9218,N,12038.6166,E,0.00,,130407,,,A*7A
$GPGGA,055528.955,2409.9258,N,12038.6159,E,1,06,4.1,121.2,M,,,,0000*00
1,3.6*3B
$GPGSV,3,1,12,24,67,327,39,26,65,355,38,29,54,015,32,10,34,061,35*74
$GPGSV,3,2,12,09,31,179,,06,29,249,41,17,28,131,,07,25,265,33*76
$GPGSV,3,3,12,22,18,298,,18,16,297,,27,15,045,,21,13,320,*72
$GPRMC,055528.955,A,2409.9258,N,12038.6159,E,0.00,,130407,,,A*7D
$GPGGA,055529.955,2409.9258,N,12038.6159,E,1,06,4.1,121.2,M,,,,0000*01
$GPGSA,A,3,24,26,29,10,06,07,,,,,,,5.5,4.1,3.6*3B
$GPRMC,055529.955,A,2409.9258,N,12038.6159,E,0.00,,130407,,,A*7C
$GPGGA,055530.955,2409.9258,N,12038.6159,E,1,06,4.1,121.2,M,,,,0000*09
$GPGSA,A,3,24,26,29,10,06,07,,,,,,,5.5,4.1,3.6*3B
$GPRMC,055530.955,A,2409.9258,N,12038.6159,E,0.00,,130407,,,A*74
$GPGGA,055531.955,2409.9258,N,12038.6159,E,1,06,4.1,121.2,M,,,,0000*08
3.6*3B
$GPRMC,055531.955,A,2409.9258,N,12038.6159,E,0.00,,130407,,,A*75
$GPGGA,055532.955,2409.9258,N,12038.6159,E,1,06,4.1,121.2,M,,,,0000*0B
$GPGSA,A,3,24,26,29,10,06,07,,,,,,,5.5,4.1,3.6*3B
$GPRMC,055532.955,A,2409.9258,N,12038.6159,E,0.00,,130407,,,A*76
$GPGGA,055533.955,2409.9258,N,12038.6159,E,1,06,4.1,121.2,M,,,,0000*0A
$GPGSA,A,3,24,26,29,10,06,07,,,,,,,5.5,4.1,3.6*3B
$GPGSV,3,1,12,24,67,327,34,26,65,355,37,29,54,015,33,10,34,061,35*77
$GPGSV,3,2,12,09,31,179,,06,29,249,42,17,28,131,,07,25,265,34*72
$GPGSV,3,3,12,22,18,298,,18,16,297,,27,15,045,,21,13,320,*72
$GPRMC,055533.955,A,2409.9258,N,12038.6159,E,0.00,,130407,,,A*77
$GPGGA,055534.955,2409.9258,N,12038.6159,E,1,06,4.1,121.2,M,,,,0000*0D
.1,3.6*3B
$GPRMC,055534.955,A,2409.9258,N,12038.6159,E,0.00,,130407,,,A*70
$GPGGA,055535.955,2409.9258,N,12038.6159,E,1,06,4.1,121.2,M,,,,0000*0C
$GPGSA,A,3,24,26,29,10,06,07,,,,,,,5.5,4.1,3.6*3B
$GPRMC,055535.955,A,2409.9258,N,12038.6159,E,0.00,,130407,,,A*71
$GPGGA,055536.955,2409.9258,N,12038.6159,E,1,06,4.1,121.2,M,,,,0000*0F
$GPGSA,A,3,24,26,29,10,06,07,,,,,,,5.5,4.1,3.6*3B
$GPRMC,055536.955,A,2409.9258,N,12038.6159,E,0.00,,130407,,,A*72
$GPGGA,055537.955,2409.9258,N,12038.6159,E,1,06,4.1,121.2,M,,,,0000*0E
,3.6*3A
$GPRMC,055537.955,A,2409.9258,N,12038.6159,E,0.00,,130407,,,A*73
$GPGGA,055538.955,2409.9258,N,12038.6159,E,1,06,4.1,121.2,M,,,,0000*01
$GPGSA,A,3,24,26,29,10,06,07,,,,,,,5.4,4.1,3.6*3A
$GPGSV,3,1,12,24,67,327,36,26,65,355,35,29,54,015,31,10,34,061,38*78
$GPGSV,3,2,12,09,31,179,,06,29,249,41,17,28,131,,07,25,265,32*77
$GPGSV,3,3,12,22,18,298,,18,16,297,,27,15,045,,21,13,320,*72
$GPRMC,055538.955,A,2409.9258,N,12038.6159,E,0.00,,130407,,,A*7C
$GPGGA,055539.954,2409.9258,N,12038.6159,E,1,06,4.1,121.2,M,,,,0000*01
$GPGSA,A,3,24,26,29,10,06,07,,,,,,,5.4,4.1,3.6*3A
$GPRMC,055539.954,A,2409.9258,N,12038.6159,E,0.00,,130407,,,A*7C
$GPGGA,055540.954,2409.9258,N,12038.6159,E,1,06,4.1,121.2,M,,,,0000*0F
,4.1,3.6*3A
$GPRMC,055540.954,A,2409.9258,N,12038.6159,E,0.00,,130407,,,A*72
$GPGGA,055541.954,2409.9258,N,12038.6159,E,1,06,4.1,121.2,M,,,,0000*0E
$GPGSA,A,3,24,26,29,10,06,07,,,,,,,5.4,4.1,3.6*3A
$GPRMC,055541.954,A,2409.9258,N,12038.6159,E,0.00,,130407,,,A*73
$GPGGA,055542.954,2409.9258,N,12038.6159,E,1,06,4.1,121.2,M,,,,0000*0D
$GPGSA,A,3,24,26,29,10,06,07,,,,,,,5.4,4.1,3.6*3A
$GPRMC,055542.954,A,2409.9258,N,12038.6159,E,0.00,,130407,,,A*70
$GPGGA,055543.954,2409.9258,N,12038.6159,E,1,06,4.1,121.2,M,,,,0000*0C
4.1,3.6*3A
$GPGSV,3,1,12,24,67,327,39,26,65,355,33,29,54,015,32,10,34,061,39*73
$GPGSV,3,2,12,09,31,179,,06,29,249,42,17,28,131,,07,25,265,34*72
$GPGSV,3,3,12,22,18,298,,18,16,297,,27,15,045,,21,13,320,*72
$GPRMC,055543.954,A,2409.9258,N,12038.6159,E,0.00,,130407,,,A*71
$GPGGA,055544.954,2409.9258,N,12038.6159,E,1,06,4.1,121.2,M,,,,0000*0B
$GPGSA,A,3,24,26,29,10,06,07,,,,,,,5.4,4.1,3.6*3A
$GPRMC,055544.954,A,2409.9258,N,12038.6159,E,0.00,,130407,,,A*76
$GPGGA,055545.954,2409.9258,N,12038.6159,E,1,06,4.1,121.2,M,,,,0000*0A
$GPGSA,A,3,24,26,29,10,06,07,,,,,,,5.4,4.1,3.6*3A
$GPRMC,055545.954,A,2409.9258,N,12038.6159,E,0.00,,130407,,,A*77
$GPGGA,055546.954,2409.9258,N,12038.6159,E,1,06,4.1,121.2,M,,,,0000*09
,4.1,3.6*3A
$GPRMC,055546.954,A,2409.9258,N,12038.6159,E,0.00,,130407,,,A*74
$GPGGA,055547.954,2409.9258,N,12038.6159,E,1,06,4.1,121.2,M,,,,0000*08
$GPGSA,A,3,24,26,29,10,06,07,,,,,,,5.4,4.1,3.6*3A
$GPRMC,055547.954,A,2409.9258,N,12038.6159,E,0.00,,130407,,,A*75
$GPGGA,055548.954,2409.9258,N,12038.6159,E,1,06,4.1,121.2,M,,,,0000*07
$GPGSA,A,3,24,26,29,10,06,07,,,,,,,5.4,4.1,3.6*3A
$GPGSV,3,1,12,24,67,327,39,26,65,356,35,29,54,015,31,10,34,061,38*74
$GPGSV,3,2,12,09,32,179,,06,29,249,42,17,28,131,,07,25,265,37*72
$GPGSV,3,3,12,22,18,298,,18,16,297,,27,15,045,,21,13,320,*72
$GPRMC,055548.954,A,2409.9258,N,12038.6159,E,0.00,,130407,,,A*7A
$GPGGA,055549.954,2409.9258,N,12038.6159,E,1,06,4.1,121.2,M,,,,0000*06
.6*3A
$GPRMC,055549.954,A,2409.9258,N,12038.6159,E,0.00,,130407,,,A*7B
$GPGGA,055550.954,2409.9258,N,12038.6159,E,1,06,4.1,121.2,M,,,,0000*0E
$GPGSA,A,3,24,26,29,10,06,07,,,,,,,5.4,4.1,3.6*3A
$GPRMC,055550.954,A,2409.9258,N,12038.6159,E,0.00,,130407,,,A*73
$GPGGA,055551.954,2409.9258,N,12038.6159,E,1,06,4.1,121.2,M,,,,0000*0F
$GPGSA,A,3,24,26,29,10,06,07,,,,,,,5.4,4.1,3.6*3A
$GPRMC,055551.954,A,2409.9258,N,12038.6159,E,0.00,,130407,,,A*72
$GPGGA,055552.954,2409.9258,N,12038.6159,E,1,06,4.1,121.2,M,,,,0000*0C
,4.1,3.5*39
$GPRMC,055552.954,A,2409.9258,N,12038.6159,E,0.00,,130407,,,A*71
$GPGGA,055553.954,2409.9258,N,12038.6159,E,1,06,4.1,121.2,M,,,,0000*0D
$GPGSA,A,3,24,26,29,10,06,07,,,,,,,5.4,4.1,3.5*39
$GPGSV,3,1,12,24,67,327,38,26,65,356,34,29,54,015,34,10,34,061,37*7E
$GPGSV,3,2,12,09,32,179,,06,29,249,43,17,28,131,,07,25,265,37*73
$GPGSV,3,3,12,22,18,298,,18,16,297,,27,15,045,,21,13,320,*72
$GPRMC,055553.954,A,2409.9258,N,12038.6159,E,0.00,,130407,,,A*70
$GPGGA,055554.954,2409.9334,N,12038.6119,E,1,06,4.1,122.6,M,,,,0000*02
$GPGSA,A,3,24,26,29,10,06,07,,,,,,,5.4,4.1,3.5*39
$GPRMC,055554.954,A,2409.9334,N,12038.6119,E,0.06,283.00,130407,,,A*69
$GPGGA,055555.954,2409.9334,N,12038.6119,E,1,06,4.1,122.6,M,,,,0000*03
*39
$GPRMC,055555.954,A,2409.9334,N,12038.6119,E,0.00,,130407,,,A*79
$GPGGA,055556.953,2409.9381,N,12038.6098,E,1,06,4.1,112.7,M,,,,0000*03
$GPGSA,A,3,24,26,29,10,06,07,,,,,,,5.4,4.1,3.5*39
$GPRMC,055556.953,A,2409.9381,N,12038.6098,E,0.00,,130407,,,A*7B
$GPGGA,055557.953,2409.9381,N,12038.6098,E,1,06,4.1,112.7,M,,,,0000*02
$GPGSA,A,3,24,26,29,10,06,07,,,,,,,5.4,4.1,3.5*39
$GPRMC,055557.953,A,2409.9381,N,12038.6098,E,0.00,,130407,,,A*7A
$GPGGA,055558.953,2409.9381,N,12038.6098,E,1,06,4.1,112.7,M,,,,0000*0D
,3.5*39
$GPGSV,3,1,12,24,67,327,40,26,65,356,36,29,54,015,35,10,34,061,36*73
$GPGSV,3,2,12,09,32,179,,06,29,249,42,17,28,131,,07,25,265,35*70
$GPGSV,3,3,12,22,18,298,,18,16,297,,27,15,045,,21,13,320,*72
$GPRMC,055558.953,A,2409.9381,N,12038.6098,E,0.00,,130407,,,A*75
$GPGGA,055559.953,2409.9381,N,12038.6098,E,1,06,4.1,112.7,M,,,,0000*0C
$GPGSA,A,3,24,26,29,10,06,07,,,,,,,5.4,4.1,3.5*39
$GPRMC,055559.953,A,2409.9381,N,12038.6098,E,0.00,,130407,,,A*74
$GPGGA,055600.953,2409.9381,N,12038.6098,E,1,06,4.1,112.7,M,,,,0000*03
$GPGSA,A,3,24,26,29,10,06,07,,,,,,,5.4,4.1,3.5*39
$GPRMC,055600.953,A,2409.9381,N,12038.6098,E,0.00,,130407,,,A*7B
$GPGGA,055601.953,2409.9381,N,12038.6098,E,1,06,4.1,112.7,M,,,,0000*02
.5*39
$GPRMC,055601.953,A,2409.9381,N,12038.6098,E,0.00,,130407,,,A*7A
$GPGGA,055602.953,2409.9381,N,12038.6098,E,1,06,4.1,112.7,M,,,,0000*01
$GPGSA,A,3,24,26,29,10,06,07,,,,,,,5.4,4.1,3.5*39
$GPRMC,055602.953,A,2409.9381,N,12038.6098,E,0.00,,130407,,,A*79
$GPGGA,055603.953,2409.9381,N,12038.6098,E,1,06,4.1,112.7,M,,,,0000*00
$GPGSA,A,3,24,26,29,10,06,07,,,,,,,5.4,4.1,3.5*39
$GPGSV,3,1,12,24,67,327,37,26,65,356,35,29,54,015,33,10,34,061,38*78
$GPGSV,3,2,12,09,32,179,,06,29,249,42,17,28,131,,07,25,265,33*76
$GPGSV,3,3,12,22,18,298,,18,16,297,,27,15,045,,21,13,320,*72
$GPRMC,055603.953,A,2409.9381,N,12038.6098,E,0.00,,130407,,,A*78
$GPGGA,055604.953,2409.9381,N,12038.6098,E,1,06,4.1,112.7,M,,,,0000*07
.5*39
$GPRMC,055604.953,A,2409.9381,N,12038.6098,E,0.00,,130407,,,A*7F
$GPGGA,055605.953,2409.9381,N,12038.6098,E,1,06,4.1,112.7,M,,,,0000*06
$GPGSA,A,3,24,26,29,10,06,07,,,,,,,5.4,4.1,3.5*39
$GPRMC,055605.953,A,2409.9381,N,12038.6098,E,0.00,,130407,,,A*7E
$GPGGA,055606.953,2409.9381,N,12038.6098,E,1,06,4.1,112.7,M,,,,0000*05
$GPGSA,A,3,24,26,29,10,06,07,,,,,,,5.4,4.1,3.5*39
$GPRMC,055606.953,A,2409.9381,N,12038.6098,E,0.00,,130407,,,A*7D
$GPGGA,055607.953,2409.9381,N,12038.6098,E,1,06,4.1,112.7,M,,,,0000*04
.5*39
$GPRMC,055607.953,A,2409.9381,N,12038.6098,E,0.00,,130407,,,A*7C
$GPGGA,055608.953,2409.9381,N,12038.6098,E,1,06,4.1,112.7,M,,,,0000*0B
$GPGSA,A,3,24,26,29,10,06,07,,,,,,,5.4,4.1,3.5*39
$GPGSV,3,1,12,24,67,327,36,26,65,356,37,29,54,015,35,10,34,061,36*73
$GPGSV,3,2,12,09,32,179,,06,29,249,42,17,28,131,,07,25,265,34*71
$GPGSV,3,3,12,22,18,298,,18,16,297,,27,15,045,,21,13,320,*72
$GPRMC,055608.953,A,2409.9381,N,12038.6098,E,0.00,,130407,,,A*73
$GPGGA,055609.953,2409.9381,N,12038.6098,E,1,06,4.1,112.7,M,,,,0000*0A
$GPGSA,A,3,24,26,29,10,06,07,,,,,,,5.4,4.1,3.5*39
$GPRMC,055609.953,A,2409.9381,N,12038.6098,E,0.00,,130407,,,A*72
$GPGGA,055610.953,2409.9381,N,12038.6098,E,1,06,4.1,112.7,M,,,,0000*02
5*39
$GPRMC,055610.953,A,2409.9381,N,12038.6098,E,0.00,,130407,,,A*7A
$GPGGA,055611.953,2409.9381,N,12038.6098,E,1,06,4.1,112.7,M,,,,0000*03
$GPGSA,A,3,24,26,29,10,06,07,,,,,,,5.4,4.1,3.5*39
$GPRMC,055611.953,A,2409.9381,N,12038.6098,E,0.00,,130407,,,A*7B
$GPGGA,055612.952,2409.9381,N,12038.6098,E,1,06,4.1,112.7,M,,,,0000*01
$GPGSA,A,3,24,26,29,10,06,07,,,,,,,5.4,4.1,3.5*39
$GPRMC,055612.952,A,2409.9381,N,12038.6098,E,0.00,,130407,,,A*79
$GPGGA,055613.952,2409.9381,N,12038.6098,E,1,06,4.1,112.7,M,,,,0000*00
3.5*39
$GPGSV,3,1,12,24,67,327,34,26,65,356,39,29,54,015,32,10,34,061,37*79
$GPGSV,3,2,12,09,32,179,,06,29,249,41,17,28,131,,07,25,265,33*75
$GPGSV,3,3,12,22,18,298,,18,16,297,,27,15,045,,21,13,320,*72
$GPRMC,055613.952,A,2409.9381,N,12038.6098,E,0.00,,130407,,,A*78
$GPGGA,055614.952,2409.9381,N,12038.6098,E,1,06,4.1,112.7,M,,,,0000*07
$GPGSA,A,3,24,26,29,10,06,07,,,,,,,5.4,4.1,3.5*39
$GPRMC,055614.952,A,2409.9381,N,12038.6098,E,0.00,,130407,,,A*7F
$GPGGA,055615.952,2409.9381,N,12038.6098,E,1,06,4.1,112.7,M,,,,0000*06
$GPGSA,A,3,24,26,29,10,06,07,,,,,,,5.4,4.1,3.5*39
$GPRMC,055615.952,A,2409.9381,N,12038.6098,E,0.00,,130407,,,A*7E
$GPGGA,055616.952,2409.9381,N,12038.6098,E,1,06,4.1,112.7,M,,,,0000*05
,3.5*39
$GPRMC,055616.952,A,2409.9381,N,12038.6098,E,0.00,,130407,,,A*7D
$GPGGA,055617.952,2409.9381,N,12038.6098,E,1,06,4.1,112.7,M,,,,0000*04
$GPGSA,A,3,24,26,29,10,06,07,,,,,,,5.4,4.1,3.5*39
$GPRMC,055617.952,A,2409.9381,N,12038.6098,E,0.00,,130407,,,A*7C
$GPGGA,055618.952,2409.9381,N,12038.6098,E,1,06,4.1,112.7,M,,,,0000*0B
$GPGSA,A,3,24,26,29,10,06,07,,,,,,,5.4,4.1,3.5*39
$GPGSV,3,1,12,24,67,327,36,26,65,356,36,29,54,016,35,10,34,061,33*74
$GPGSV,3,2,12,09,32,179,,06,29,248,42,17,28,131,,07,25,265,37*73
$GPGSV,3,3,12,22,18,299,,18,16,297,,27,14,045,,21,14,320,*75
$GPRMC,055618.952,A,2409.9381,N,12038.6098,E,0.00,,130407,,,A*73
$GPGGA,055619.952,2409.9381,N,12038.6098,E,1,06,4.1,112.7,M,,,,0000*0A
3.5*39
$GPRMC,055619.952,A,2409.9381,N,12038.6098,E,0.00,,130407,,,A*72
$GPGGA,055620.952,2409.9381,N,12038.6098,E,1,06,4.1,112.7,M,,,,0000*00
$GPGSA,A,3,24,26,29,10,06,07,,,,,,,5.4,4.1,3.5*39
$GPRMC,055620.952,A,2409.9381,N,12038.6098,E,0.00,,130407,,,A*78
$GPGGA,055621.952,2409.9381,N,12038.6098,E,1,06,4.1,112.7,M,,,,0000*01
$GPGSA,A,3,24,26,29,10,06,07,,,,,,,5.4,4.1,3.5*39
$GPRMC,055621.952,A,2409.9381,N,12038.6098,E,0.00,,130407,,,A*79
$GPGGA,055622.952,2409.9381,N,12038.6098,E,1,06,4.1,112.7,M,,,,0000*02
3.5*39
$GPRMC,055622.952,A,2409.9381,N,12038.6098,E,0.00,,130407,,,A*7A
$GPGGA,055623.952,2409.9381,N,12038.6098,E,1,06,4.1,112.7,M,,,,0000*03
$GPGSA,A,3,24,26,29,10,06,07,,,,,,,5.4,4.1,3.5*39
$GPGSV,3,1,12,24,67,327,36,26,65,356,38,29,54,016,35,10,34,061,36*7F
$GPGSV,3,2,12,09,32,179,,06,29,248,42,17,28,131,,07,25,265,36*72
$GPGSV,3,3,12,22,18,299,,18,16,297,33,27,14,045,,21,14,320,*75
$GPRMC,055623.952,A,2409.9381,N,12038.6098,E,0.00,,130407,,,A*7B
$GPGGA,055624.952,2409.9381,N,12038.6098,E,1,06,4.1,112.7,M,,,,0000*04
$GPGSA,A,3,24,26,29,10,06,07,,,,,,,5.4,4.1,3.5*39
$GPRMC,055624.952,A,2409.9381,N,12038.6098,E,0.00,,130407,,,A*7C
$GPGGA,055625.952,2409.9381,N,12038.6098,E,1,06,4.1,112.7,M,,,,0000*05
.5*39
$GPRMC,055625.952,A,2409.9381,N,12038.6098,E,0.00,,130407,,,A*7D
$GPGGA,055626.952,2409.9381,N,12038.6098,E,1,06,4.1,112.7,M,,,,0000*06
$GPGSA,A,3,24,26,29,10,06,07,,,,,,,5.4,4.1,3.5*39
$GPRMC,055626.952,A,2409.9381,N,12038.6098,E,0.00,,130407,,,A*7E
$GPGGA,055627.952,2409.9381,N,12038.6098,E,1,06,4.1,112.7,M,,,,0000*07
$GPGSA,A,3,24,26,29,10,06,07,,,,,,,5.4,4.1,3.5*39
$GPRMC,055627.952,A,2409.9381,N,12038.6098,E,0.00,,130407,,,A*7F
$GPGGA,055628.952,2409.9381,N,12038.6098,E,1,06,4.1,112.7,M,,,,0000*08
4,4.1,3.5*39
$GPGSV,3,1,12,24,67,327,37,26,65,356,37,29,54,016,31,10,34,061,38*7B
$GPGSV,3,2,12,09,32,179,,06,29,248,43,17,28,131,,07,25,265,36*73
$GPGSV,3,3,12,22,18,299,,18,16,297,33,27,14,045,,21,14,320,*75
$GPRMC,055628.952,A,2409.9381,N,12038.6098,E,0.00,,130407,,,A*70
$GPGGA,055629.951,2409.9381,N,12038.6098,E,1,06,4.1,112.7,M,,,,0000*0A
$GPGSA,A,3,24,26,29,10,06,07,,,,,,,5.4,4.1,3.5*39
$GPRMC,055629.951,A,2409.9381,N,12038.6098,E,0.00,,130407,,,A*72
$GPGGA,055630.951,2409.9381,N,12038.6098,E,1,06,4.1,112.7,M,,,,0000*02
$GPGSA,A,3,24,26,29,10,06,07,,,,,,,5.4,4.1,3.5*39
$GPRMC,055630.951,A,2409.9381,N,12038.6098,E,0.00,,130407,,,A*7A
$GPGGA,055631.951,2409.9381,N,12038.6098,E,1,06,4.1,112.7,M,,,,0000*03
4.1,3.5*39
$GPRMC,055631.951,A,2409.9381,N,12038.6098,E,0.00,,130407,,,A*7B
$GPGGA,055632.951,2409.9381,N,12038.6098,E,1,06,4.1,112.7,M,,,,0000*00
$GPGSA,A,3,24,26,29,10,06,07,,,,,,,5.4,4.1,3.5*39
$GPRMC,055632.951,A,2409.9381,N,12038.6098,E,0.00,,130407,,,A*78
$GPGGA,055633.951,2409.9381,N,12038.6098,E,1,06,4.1,112.7,M,,,,0000*01
$GPGSA,A,3,24,26,29,10,06,07,,,,,,,5.4,4.1,3.5*39
$GPGSV,3,1,12,24,67,327,38,26,65,356,35,29,54,016,34,10,34,061,37*7C
$GPGSV,3,2,12,09,32,179,,06,29,248,42,17,28,131,,07,25,265,35*71
$GPGSV,3,3,12,22,18,299,,18,16,297,24,27,14,045,,21,14,320,*73
$GPRMC,055633.951,A,2409.9381,N,12038.6098,E,0.00,,130407,,,A*79
$GPGGA,055634.951,2409.9381,N,12038.6098,E,1,06,4.1,112.7,M,,,,0000*06
