000*04
$Gj¥j–Yc6∆ñ∆&F∆&f∆v∆f∆∆∆∆∆∆∆∆ñÊ∆FÊV∆vÊñ¶6fk$GPRMC,054052.864,A,2410.2688,N,12038.1916,E,0.00,,130407,,,A*79
$GPGGA,054053.864,2410.2688,N,12038.1916,E,1,05,4.5,151.2,M,,,,0000*05
$GPGSA,A,3,09,24,26,07,06,,,,,,,,9.1,4.5,7.9*3F
$GPGSV,3,1,12,29,73,310,,26,71,342,40,24,60,330,38,10,46,028,*74
$GPGSV,3,2,12,17,34,125,,06,32,256,32,07,27,272,37,31,26,279,*70
$GPGSV,3,3,12,09,25,180,34,27,18,049,,22,15,293,,18,12,291,*77
$GPRMC,054053.864,A,2410.2688,N,12038.1916,E,0.00,,130407,,,A*78
$GPGGA,054054.864,2410.2688,N,12038.1916,E,1,05,4.5,151.2,M,,,,0000*02
$GPGSA,A,3,09,24,26,07,06,,,,,,,,9.1,4.5,7.9*3F
$GPRMC,054054.864,A,2410.2688,N,12038.1916,E,0.00,,130407,,,A*7F
$GPGGA,054055.864,2410.2688,N,12038.1916,E,1,05,4.5,151.2,M,,,,0000*03
.5,7.9*3F
$GPRMC,054055.864,A,2410.2688,N,12038.1916,E,0.00,,130407,,,A*7E
$GPGGA,054056.864,2410.2688,N,12038.1916,E,1,05,4.5,151.2,M,,,,0000*00
$GPGSA,A,3,09,24,26,07,06,,,,,,,,9.1,4.5,7.9*3F
$GPRMC,054056.864,A,2410.2688,N,12038.1916,E,0.00,,130407,,,A*7D
$GPGGA,054057.864,2410.2688,N,12038.1916,E,1,05,4.5,151.2,M,,,,0000*01
$GPGSA,A,3,09,24,26,07,06,,,,,,,,9.1,4.5,7.9*3F
$GPRMC,054057.864,A,2410.2688,N,12038.1916,E,0.00,,130407,,,A*7C
$GPGGA,054058.864,2410.2688,N,12038.1916,E,1,05,4.5,151.2,M,,,,0000*0E
1,4.5,7.9*3F
$GPGSV,3,1,12,29,73,310,,26,71,342,40,24,60,330,38,10,46,028,*74
$GPGSV,3,2,12,17,34,125,,06,32,256,36,07,27,272,37,31,26,279,*74
$GPGSV,3,3,12,09,25,180,36,27,18,049,,22,15,293,,18,12,291,*75
$GPRMC,054058.864,A,2410.2688,N,12038.1916,E,0.00,,130407,,,A*73
$GPGGA,054059.864,2410.2688,N,12038.1916,E,1,05,4.5,151.2,M,,,,0000*0F
$GPGSA,A,3,09,24,26,07,06,,,,,,,,9.1,4.5,7.9*3F
$GPRMC,054059.864,A,2410.2688,N,12038.1916,E,0.00,,130407,,,A*72
$GPGGA,054100.864,2410.2688,N,12038.1916,E,1,05,4.5,151.2,M,,,,0000*02
$GPGSA,A,3,09,24,26,07,06,,,,,,,,9.1,4.5,7.9*3F
$GPRMC,054100.864,A,2410.2688,N,12038.1916,E,0.00,,130407,,,A*7F
$GPGGA,054101.863,2410.2688,N,12038.1916,E,1,05,4.5,151.2,M,,,,0000*04
9.1,4.5,7.9*3F
$GPRMC,054101.863,A,2410.2688,N,12038.1916,E,0.00,,130407,,,A*79
$GPGGA,054102.863,2410.2688,N,12038.1916,E,1,05,4.5,151.2,M,,,,0000*07
$GPGSA,A,3,09,24,26,07,06,,,,,,,,9.1,4.5,7.9*3F
$GPRMC,054102.863,A,2410.2688,N,12038.1916,E,0.00,,130407,,,A*7A
$GPGGA,054103.863,2410.2688,N,12038.1916,E,1,05,4.5,151.2,M,,,,0000*06
$GPGSA,A,3,09,24,26,07,06,,,,,,,,9.1,4.5,7.9*3F
$GPGSV,3,1,12,29,73,310,,26,71,342,41,24,60,330,41,10,46,028,*7B
$GPGSV,3,2,12,17,34,125,,06,32,256,36,07,27,272,38,31,26,279,*7B
$GPGSV,3,3,12,09,25,180,33,27,18,049,,22,15,293,,18,12,291,*70
$GPRMC,054103.863,A,2410.2688,N,12038.1916,E,0.00,,130407,,,A*7B
$GPGGA,054104.863,2410.2688,N,12038.1916,E,1,05,4.5,151.2,M,,,,0000*01
,9.1,4.5,7.9*3F
$GPRMC,054104.863,A,2410.2688,N,12038.1916,E,0.00,,130407,,,A*7C
$GPGGA,054105.863,2410.2688,N,12038.1916,E,1,05,4.5,151.2,M,,,,0000*00
$GPGSA,A,3,09,24,26,07,06,,,,,,,,9.1,4.5,7.9*3F
$GPRMC,054105.863,A,2410.2688,N,12038.1916,E,0.00,,130407,,,A*7D
$GPGGA,054106.863,2410.2688,N,12038.1916,E,1,05,4.5,151.2,M,,,,0000*03
$GPGSA,A,3,09,24,26,07,06,,,,,,,,9.1,4.5,8.0*39
$GPRMC,054106.863,A,2410.2688,N,12038.1916,E,0.00,,130407,,,A*7E
$GPGGA,054107.863,2410.2688,N,12038.1916,E,1,05,4.5,151.2,M,,,,0000*02
9.2,4.5,8.0*3A
$GPRMC,054107.863,A,2410.2688,N,12038.1916,E,0.00,,130407,,,A*7F
$GPGGA,054108.863,2410.2688,N,12038.1916,E,1,05,4.5,151.2,M,,,,0000*0D
$GPGSA,A,3,09,24,26,07,06,,,,,,,,9.2,4.5,8.0*3A
$GPGSV,3,1,12,29,73,310,,26,71,342,39,24,60,330,39,10,46,028,*7B
$GPGSV,3,2,12,17,34,125,,06,32,256,38,07,27,272,39,31,26,279,*74
$GPGSV,3,3,12,09,25,180,34,27,18,049,,22,15,293,,18,12,291,*77
$GPRMC,054108.863,A,2410.2688,N,12038.1916,E,0.00,,130407,,,A*70
$GPGGA,054109.863,2410.2688,N,12038.1916,E,1,05,4.5,151.2,M,,,,0000*0C
$GPGSA,A,3,09,24,26,07,06,,,,,,,,9.2,4.5,8.0*3A
$GPRMC,054109.863,A,2410.2688,N,12038.1916,E,0.00,,130407,,,A*71
$GPGGA,054110.863,2410.2688,N,12038.1916,E,1,05,4.5,151.2,M,,,,0000*04
9.2,4.5,8.0*3A
$GPRMC,054110.863,A,2410.2688,N,12038.1916,E,0.00,,130407,,,A*79
$GPGGA,054111.863,2410.2688,N,12038.1916,E,1,05,4.5,151.2,M,,,,0000*05
$GPGSA,A,3,09,24,26,07,06,,,,,,,,9.2,4.5,8.0*3A
$GPRMC,054111.863,A,2410.2688,N,12038.1916,E,0.00,,130407,,,A*78
$GPGGA,054112.863,2410.2688,N,12038.1916,E,1,05,4.5,151.2,M,,,,0000*06
$GPGSA,A,3,09,24,26,07,06,,,,,,,,9.2,4.5,8.0*3A
$GPRMC,054112.863,A,2410.2688,N,12038.1916,E,0.00,,130407,,,A*7B
$GPGGA,054113.863,2410.2688,N,12038.1916,E,1,05,4.5,151.2,M,,,,0000*07
,,9.2,4.5,8.0*3A
$GPGSV,3,1,12,26,71,342,40,24,60,330,42,29,60,010,,10,46,028,*78
$GPGSV,3,2,12,17,34,125,,06,32,256,32,07,27,272,38,31,26,279,*7F
$GPGSV,3,3,12,09,25,180,30,27,18,049,,22,15,293,,18,13,291,*72
$GPRMC,054113.863,A,2410.2688,N,12038.1916,E,0.00,,130407,,,A*7A
$GPGGA,054114.863,2410.2688,N,12038.1916,E,1,05,4.5,151.2,M,,,,0000*00
$GPGSA,A,3,09,24,26,07,06,,,,,,,,9.2,4.5,8.0*3A
$GPRMC,054114.863,A,2410.2688,N,12038.1916,E,0.00,,130407,,,A*7D
$GPGGA,054115.863,2410.2688,N,12038.1916,E,1,05,4.5,151.2,M,,,,0000*01
$GPGSA,A,3,09,24,26,07,06,,,,,,,,9.2,4.5,8.0*3A
$GPRMC,054115.863,A,2410.2688,N,12038.1916,E,0.00,,130407,,,A*7C
$GPGGA,054116.863,2410.2688,N,12038.1916,E,1,05,4.5,151.2,M,,,,0000*02
,,,,9.2,4.5,8.0*3A
$GPRMC,054116.863,A,2410.2688,N,12038.1916,E,0.00,,130407,,,A*7F
$GPGGA,054117.862,2410.2688,N,12038.1916,E,1,05,4.6,151.2,M,,,,0000*01
$GPGSA,A,3,09,24,26,07,06,,,,,,,,9.2,4.6,8.0*39
$GPRMC,054117.862,A,2410.2688,N,12038.1916,E,0.00,,130407,,,A*7F
$GPGGA,054118.862,2410.2705,N,12038.1940,E,1,05,4.6,142.3,M,,,,0000*0A
$GPGSA,A,3,09,24,26,07,06,,,,,,,,9.2,4.6,8.0*39
$GPGSV,3,1,12,26,71,342,40,24,60,330,41,29,60,010,,10,46,028,*7B
$GPGSV,3,2,12,17,33,125,,06,32,256,32,07,27,272,36,31,26,279,*76
$GPGSV,3,3,12,09,25,180,31,27,18,049,,22,15,293,,18,13,291,*73
$GPRMC,054118.862,A,2410.2705,N,12038.1940,E,0.00,,130407,,,A*77
$GPGGA,054119.862,2410.2705,N,12038.1940,E,1,05,4.6,142.3,M,,,,0000*0B
.2,4.6,8.0*39
$GPRMC,054119.862,A,2410.2705,N,12038.1940,E,0.00,,130407,,,A*76
$GPGGA,054120.862,2410.2705,N,12038.1940,E,1,05,4.6,142.3,M,,,,0000*01
$GPGSA,A,3,09,24,26,07,06,,,,,,,,9.2,4.6,8.0*39
$GPRMC,054120.862,A,2410.2705,N,12038.1940,E,0.00,,130407,,,A*7C
$GPGGA,054121.862,2410.2705,N,12038.1940,E,1,05,4.6,142.3,M,,,,0000*00
$GPGSA,A,3,09,24,26,07,06,,,,,,,,9.3,4.6,8.0*38
$GPRMC,054121.862,A,2410.2705,N,12038.1940,E,0.00,,130407,,,A*7D
$GPGGA,054122.862,2410.2705,N,12038.1940,E,1,05,4.6,142.3,M,,,,0000*03
3,4.6,8.1*39
$GPRMC,054122.862,A,2410.2705,N,12038.1940,E,0.00,,130407,,,A*7E
$GPGGA,054123.862,2410.2705,N,12038.1940,E,1,05,4.6,142.3,M,,,,0000*02
$GPGSA,A,3,09,24,26,07,06,,,,,,,,9.3,4.6,8.1*39
$GPGSV,3,1,12,26,71,342,40,24,60,330,40,29,60,010,,10,46,028,*7A
$GPGSV,3,2,12,17,33,125,,06,32,256,37,07,27,272,35,31,26,279,*70
$GPGSV,3,3,12,09,25,180,30,27,18,049,,22,15,293,,18,13,291,*72
$GPRMC,054123.862,A,2410.2705,N,12038.1940,E,0.00,,130407,,,A*7F
$GPGGA,054124.862,2410.2705,N,12038.1940,E,1,05,4.6,142.3,M,,,,0000*05
$GPGSA,A,3,09,24,26,07,06,,,,,,,,9.3,4.6,8.1*39
$GPRMC,054124.862,A,2410.2705,N,12038.1940,E,0.00,,130407,,,A*78
$GPGGA,054125.862,2410.2705,N,12038.1940,E,1,05,4.6,142.3,M,,,,0000*04
9.3,4.6,8.1*39
$GPRMC,054125.862,A,2410.2705,N,12038.1940,E,0.00,,130407,,,A*79
$GPGGA,054126.862,2410.2705,N,12038.1940,E,1,05,4.6,142.3,M,,,,0000*07
$GPGSA,A,3,09,24,26,07,06,,,,,,,,9.3,4.6,8.1*39
$GPRMC,054126.862,A,2410.2705,N,12038.1940,E,0.00,,130407,,,A*7A
$GPGGA,054127.862,2410.2705,N,12038.1940,E,1,05,4.6,142.3,M,,,,0000*06
$GPGSA,A,3,09,24,26,07,06,,,,,,,,9.3,4.6,8.1*39
$GPRMC,054127.862,A,2410.2705,N,12038.1940,E,0.00,,130407,,,A*7B
$GPGGA,054128.862,2410.2705,N,12038.1940,E,1,05,4.6,142.3,M,,,,0000*09
.3,4.6,8.1*39
$GPGSV,3,1,12,26,71,342,40,24,60,330,40,29,60,010,,10,46,028,*7A
$GPGSV,3,2,12,17,33,125,,06,32,256,33,07,27,272,37,31,26,279,*76
$GPGSV,3,3,12,09,25,180,28,27,18,049,,22,15,293,,18,13,291,*7B
$GPRMC,054128.862,A,2410.2705,N,12038.1940,E,0.00,,130407,,,A*74
$GPGGA,054129.862,2410.2705,N,12038.1940,E,1,05,4.6,142.3,M,,,,0000*08
$GPGSA,A,3,09,24,26,07,06,,,,,,,,9.3,4.6,8.1*39
$GPRMC,054129.862,A,2410.2705,N,12038.1940,E,0.00,,130407,,,A*75
$GPGGA,054130.862,2410.2705,N,12038.1940,E,1,05,4.6,142.3,M,,,,0000*00
$GPGSA,A,3,09,24,26,07,06,,,,,,,,9.3,4.6,8.1*39
$GPRMC,054130.862,A,2410.2705,N,12038.1940,E,0.00,,130407,,,A*7D
$GPGGA,054131.862,2410.2705,N,12038.1940,E,1,05,4.6,142.3,M,,,,0000*01
.3,4.6,8.1*39
$GPRMC,054131.862,A,2410.2705,N,12038.1940,E,0.00,,130407,,,A*7C
$GPGGA,054132.862,2410.2705,N,12038.1940,E,1,05,4.6,142.3,M,,,,0000*02
$GPGSA,A,3,09,24,26,07,06,,,,,,,,9.3,4.6,8.1*39
$GPRMC,054132.862,A,2410.2705,N,12038.1940,E,0.00,,130407,,,A*7F
$GPGGA,054133.862,2410.2705,N,12038.1940,E,1,05,4.6,142.3,M,,,,0000*03
$GPGSA,A,3,09,24,26,07,06,,,,,,,,9.3,4.6,8.1*39
$GPGSV,3,1,12,26,71,342,39,24,60,330,40,29,60,010,,10,46,028,*74
$GPGSV,3,2,12,17,33,125,,06,32,256,33,07,27,272,36,31,26,279,*77
$GPGSV,3,3,12,09,25,180,26,27,18,049,,22,15,293,,18,13,291,*75
$GPRMC,054133.862,A,2410.2705,N,12038.1940,E,0.00,,130407,,,A*7E
$GPGGA,054134.861,2410.2705,N,12038.1940,E,1,05,4.6,142.3,M,,,,0000*07
,8.1*39
$GPRMC,054134.861,A,2410.2705,N,12038.1940,E,0.00,,130407,,,A*7A
$GPGGA,054135.861,2410.2705,N,12038.1940,E,1,05,4.6,142.3,M,,,,0000*06
$GPGSA,A,3,09,24,26,07,06,,,,,,,,9.3,4.6,8.1*39
$GPRMC,054135.861,A,2410.2705,N,12038.1940,E,0.00,,130407,,,A*7B
$GPGGA,054136.861,2410.2705,N,12038.1940,E,1,05,4.6,142.3,M,,,,0000*05
$GPGSA,A,3,09,24,26,07,06,,,,,,,,9.4,4.6,8.1*3E
$GPRMC,054136.861,A,2410.2705,N,12038.1940,E,0.00,,130407,,,A*78
$GPGGA,054137.861,2410.2705,N,12038.1940,E,1,05,4.6,142.3,M,,,,0000*04
4,4.6,8.2*3D
$GPRMC,054137.861,A,2410.2705,N,12038.1940,E,0.00,,130407,,,A*79
$GPGGA,054138.861,2410.2705,N,12038.1940,E,1,05,4.6,142.3,M,,,,0000*0B
$GPGSA,A,3,09,24,26,07,06,,,,,,,,9.4,4.6,8.2*3D
$GPGSV,3,1,12,26,71,342,40,24,60,330,40,29,60,010,,10,46,028,*7A
$GPGSV,3,2,12,17,33,125,,06,32,256,33,07,27,272,37,31,26,279,*76
$GPGSV,3,3,12,09,25,180,20,27,18,049,,22,15,293,,18,13,291,*73
$GPRMC,054138.861,A,2410.2705,N,12038.1940,E,0.00,,130407,,,A*76
$GPGGA,054139.861,2410.2705,N,12038.1940,E,1,05,4.6,142.3,M,,,,0000*0A
$GPGSA,A,3,09,24,26,07,06,,,,,,,,9.4,4.6,8.2*3D
$GPRMC,054139.861,A,2410.2705,N,12038.1940,E,0.00,,130407,,,A*77
$GPGGA,054140.861,2410.2705,N,12038.1940,E,1,05,4.6,142.3,M,,,,0000*04
9.4,4.6,8.2*3D
$GPRMC,054140.861,A,2410.2705,N,12038.1940,E,0.00,,130407,,,A*79
$GPGGA,054141.861,2410.2705,N,12038.1940,E,1,05,4.6,142.3,M,,,,0000*05
$GPGSA,A,3,09,24,26,07,06,,,,,,,,9.4,4.6,8.2*3D
$GPRMC,054141.861,A,2410.2705,N,12038.1940,E,0.00,,130407,,,A*78
$GPGGA,054142.861,2410.2705,N,12038.1940,E,1,05,4.6,142.3,M,,,,0000*06
$GPGSA,A,3,09,24,26,07,06,,,,,,,,9.4,4.6,8.2*3D
$GPRMC,054142.861,A,2410.2705,N,12038.1940,E,0.00,,130407,,,A*7B
$GPGGA,054143.861,2410.2705,N,12038.1940,E,1,05,4.6,142.3,M,,,,0000*07
,,,9.4,4.6,8.2*3D
$GPGSV,3,1,12,26,71,343,43,24,60,329,41,29,60,011,,10,46,028,*70
$GPGSV,3,2,12,17,33,126,,06,32,256,34,07,27,272,37,31,26,279,*72
$GPGSV,3,3,12,09,25,180,21,27,18,049,,22,15,293,,18,13,292,*71
$GPRMC,054143.861,A,2410.2705,N,12038.1940,E,0.00,,130407,,,A*7A
$GPGGA,054144.861,2410.2705,N,12038.1940,E,1,05,4.6,142.3,M,,,,0000*00
$GPGSA,A,3,09,24,26,07,06,,,,,,,,9.4,4.6,8.2*3D
$GPRMC,054144.861,A,2410.2705,N,12038.1940,E,0.00,,130407,,,A*7D
$GPGGA,054145.861,2410.2705,N,12038.1940,E,1,05,4.6,142.3,M,,,,0000*01
$GPGSA,A,3,09,24,26,07,06,,,,,,,,9.4,4.6,8.2*3D
$GPRMC,054145.861,A,2410.2705,N,12038.1940,E,0.00,,130407,,,A*7C
$GPGGA,054146.861,2410.2705,N,12038.1940,E,1,05,4.6,142.3,M,,,,0000*02
,,,9.4,4.6,8.2*3D
$GPRMC,054146.861,A,2410.2705,N,12038.1940,E,0.00,,130407,,,A*7F
$GPGGA,054147.861,2410.2705,N,12038.1940,E,1,05,4.6,142.3,M,,,,0000*03
$GPGSA,A,3,09,24,26,07,06,,,,,,,,9.4,4.6,8.2*3D
$GPRMC,054147.861,A,2410.2705,N,12038.1940,E,0.00,,130407,,,A*7E
$GPGGA,054148.861,2410.2705,N,12038.1940,E,1,05,4.6,142.3,M,,,,0000*0C
$GPGSA,A,3,09,24,26,07,06,,,,,,,,9.4,4.6,8.2*3D
$GPGSV,3,1,12,26,71,343,42,24,61,329,42,29,60,011,,10,46,028,*73
$GPGSV,3,2,12,17,33,126,,06,32,256,34,07,27,272,39,31,26,279,*7C
$GPGSV,3,3,12,09,25,180,22,27,18,049,,22,15,293,,18,13,292,*72
$GPRMC,054148.861,A,2410.2705,N,12038.1940,E,0.00,,130407,,,A*71
$GPGGA,054149.861,2410.2705,N,12038.1940,E,1,05,4.6,142.3,M,,,,0000*0D
4,4.6,8.2*3D
$GPRMC,054149.861,A,2410.2705,N,12038.1940,E,0.00,,130407,,,A*70
$GPGGA,054150.861,2410.2705,N,12038.1940,E,1,05,4.6,142.3,M,,,,0000*05
$GPGSA,A,3,09,24,26,07,06,,,,,,,,9.5,4.6,8.2*3C
$GPRMC,054150.861,A,2410.2705,N,12038.1940,E,0.00,,130407,,,A*78
$GPGGA,054151.860,2410.2705,N,12038.1940,E,1,05,4.6,142.3,M,,,,0000*05
$GPGSA,A,3,09,24,26,07,06,,,,,,,,9.5,4.6,8.2*3C
$GPRMC,054151.860,A,2410.2705,N,12038.1940,E,0.00,,130407,,,A*78
$GPGGA,054152.860,2410.2705,N,12038.1940,E,1,05,4.6,142.3,M,,,,0000*06
